,Project.Name,Latitude,Longitude,nearest_hospital,nearest_mall,nearest_mrt,nearest_busstop
1,THE SAIL @ MARINA BAY,1.2812533,103.8528303,Singapore General Hospital,Marina Bay Link Mall,DOWNTOWN MRT STATION,3381
2,MARINA ONE RESIDENCES,1.2773653,103.8536039,Singapore General Hospital,Marina Bay Link Mall,MARINA BAY MRT STATION,3539
3,THE CLIFT,1.2794995,103.8472991,Singapore General Hospital,Square 2,TELOK AYER MRT STATION,3151
4,ONE SHENTON,1.2795839,103.8506561,Singapore General Hospital,Square 2,DOWNTOWN MRT STATION,3071
5,ROBINSON SUITES,1.2810504,103.8498409,Singapore General Hospital,Square 2,TELOK AYER MRT STATION,3041
6,MARINA BAY SUITES,1.2805888,103.8521632,Singapore General Hospital,Marina Bay Link Mall,DOWNTOWN MRT STATION,3059
7,V ON SHENTON,1.2770815,103.8491963,Singapore General Hospital,Square 2,TANJONG PAGAR MRT STATION,3129
8,MARINA BAY RESIDENCES,1.2796864,103.8550598,Singapore General Hospital,Marina Bay Link Mall,DOWNTOWN MRT STATION,3391
9,RIVERWALK APARTMENTS,1.289054,103.848401,Raffles Hospital,Funan,CLARKE QUAY MRT STATION,4251
10,EMERALD GARDEN,1.2818489,103.8466711,Singapore General Hospital,People's Park Complex,TELOK AYER MRT STATION,5189
11,PEOPLE'S PARK COMPLEX,1.2841977,103.8425488,Singapore General Hospital,People's Park Complex,CHINATOWN MRT STATION,5013
12,PEOPLE'S PARK CENTRE,1.285631,103.8440929,Singapore General Hospital,People's Park Centre,CHINATOWN MRT STATION,5022
13,FOOK HAI BUILDING,1.2848439,103.8466763,Singapore General Hospital,Singapore Shopping Centre,TELOK AYER MRT STATION,5199
14,THE RIVERSIDE PIAZZA,1.2886871,103.8438623,Singapore General Hospital,Singapore Shopping Centre,CLARKE QUAY MRT STATION,6189
15,TELOK AYER CONSERVATION AREA,1.281155,103.8478489,Singapore General Hospital,Square 2,TELOK AYER MRT STATION,3041
17,THE PLATINUM,1.284228,103.844735,Singapore General Hospital,People's Park Centre,CHINATOWN MRT STATION,5131
18,SKYSUITES@ANSON,1.2746113,103.8447546,Singapore General Hospital,100 AM,TANJONG PAGAR MRT STATION,3241
19,SPOTTISWOODE 18,1.2754934,103.8375526,Singapore General Hospital,Tanjong Pagar Centre,OUTRAM PARK MRT STATION,10021
20,ALTEZ,1.2745312,103.8442336,Singapore General Hospital,100 AM,TANJONG PAGAR MRT STATION,3222
21,LUMIERE,1.274218,103.846104,Singapore General Hospital,100 AM,TANJONG PAGAR MRT STATION,3218
22,SPOTTISWOODE RESIDENCES,1.2754398,103.8367534,Singapore General Hospital,Tanjong Pagar Centre,OUTRAM PARK MRT STATION,10041
23,CRAIG PLACE,1.278053,103.842299,Singapore General Hospital,Tanjong Pagar Centre,TANJONG PAGAR MRT STATION,5239
24,SKY EVERTON,1.2744257,103.8443157,Singapore General Hospital,100 AM,TANJONG PAGAR MRT STATION,3222
25,76 SHENTON,1.2736383,103.845513,Singapore General Hospital,100 AM,TANJONG PAGAR MRT STATION,3222
26,THE ARRIS,1.2753469,103.8416613,Singapore General Hospital,Tanjong Pagar Centre,TANJONG PAGAR MRT STATION,5519
27,EON SHENTON,1.2739069,103.846216,Singapore General Hospital,100 AM,TANJONG PAGAR MRT STATION,3218
28,SPOTTISWOODE PARK,1.2752989,103.8372683,Singapore General Hospital,Tanjong Pagar Centre,OUTRAM PARK MRT STATION,10041
29,ONZE @ TANJONG PAGAR,1.274839,103.8422137,Singapore General Hospital,Tanjong Pagar Centre,TANJONG PAGAR MRT STATION,5411
30,DORSETT RESIDENCES,1.2799665,103.8401961,Singapore General Hospital,People's Park Complex,OUTRAM PARK MRT STATION,5069
31,SPOTTISWOODE SUITES,1.2760101,103.8374577,Singapore General Hospital,Tanjong Pagar Centre,OUTRAM PARK MRT STATION,10021
32,INTERNATIONAL PLAZA,1.2756998,103.8458098,Singapore General Hospital,100 AM,TANJONG PAGAR MRT STATION,3223
33,WALLICH RESIDENCE,1.277218,103.8456004,Singapore General Hospital,100 AM,TANJONG PAGAR MRT STATION,3223
34,THE BEACON,1.277748946,103.8402259,Singapore General Hospital,Tanjong Pagar Centre,OUTRAM PARK MRT STATION,5521
35,TANJONG PAGAR COMPLEX,1.2780299,103.8404472,Singapore General Hospital,Tanjong Pagar Centre,OUTRAM PARK MRT STATION,5239
36,EVERTON COURT,1.2756464,103.8386912,Singapore General Hospital,Tanjong Pagar Centre,OUTRAM PARK MRT STATION,10021
37,THYE SHAN MANSION,1.284064,103.843622,Singapore General Hospital,People's Park Complex,CHINATOWN MRT STATION,5013
38,STIRLING RESIDENCES,1.2916794,103.80484,Alexandra Hospital,Anchorpoint,QUEENSTOWN MRT STATION,11551
39,THE ANCHORAGE,1.289614529,103.8051138,Alexandra Hospital,Anchorpoint,QUEENSTOWN MRT STATION,11521
40,COMMONWEALTH TOWERS,1.2960092,103.80554,Alexandra Hospital,Anchorpoint,QUEENSTOWN MRT STATION,11149
41,ALEX RESIDENCES,1.2904764,103.8189484,Gleneagles Hospital,Tiong Bahru Plaza,REDHILL MRT STATION,10271
42,RIVIERE,1.2914187,103.8350032,Singapore General Hospital,Great World City,FORT CANNING MRT STATION,6129
43,AVENUE SOUTH RESIDENCE,1.2764686,103.8301721,Singapore General Hospital,Tiong Bahru Plaza,TIONG BAHRU MRT STATION,10399
44,HIGHLINE RESIDENCES,1.2851558,103.8298123,Singapore General Hospital,Tiong Bahru Plaza,TIONG BAHRU MRT STATION,10151
45,TIONG BAHRU ESTATE,1.2869369,103.8285754,Singapore General Hospital,Tiong Bahru Plaza,TIONG BAHRU MRT STATION,10151
46,QUEENS PEAK,1.2948546,103.8067587,Alexandra Hospital,Anchorpoint,QUEENSTOWN MRT STATION,11149
47,THE CREST,1.2927545,103.8198733,Gleneagles Hospital,Tiong Bahru Plaza,REDHILL MRT STATION,10269
48,THE REGENCY AT TIONG BAHRU,1.2821842,103.8301556,Singapore General Hospital,Tiong Bahru Plaza,TIONG BAHRU MRT STATION,10121
49,RIVER PLACE,1.2897489,103.8408852,Singapore General Hospital,Singapore Shopping Centre,FORT CANNING MRT STATION,6169
50,THE METROPOLITAN CONDOMINIUM,1.2907192,103.8164014,Alexandra Hospital,Anchorpoint,REDHILL MRT STATION,10209
51,CENTRAL GREEN CONDOMINIUM,1.2853429,103.8277045,Singapore General Hospital,Tiong Bahru Plaza,TIONG BAHRU MRT STATION,10169
52,QUEENS,1.293842545,103.8081345,Alexandra Hospital,Anchorpoint,QUEENSTOWN MRT STATION,11139
53,ECHELON,1.290479,103.817921,Gleneagles Hospital,Tiong Bahru Plaza,REDHILL MRT STATION,10271
54,ALEXIS,1.291297,103.807352,Alexandra Hospital,Anchorpoint,QUEENSTOWN MRT STATION,11531
55,ARTRA,1.2902635,103.8171882,Alexandra Hospital,Tiong Bahru Plaza,REDHILL MRT STATION,10209
56,PRINCIPAL GARDEN,1.2927757,103.8220007,Gleneagles Hospital,Tiong Bahru Plaza,REDHILL MRT STATION,10269
57,MARGARET VILLE,1.2994541,103.8028894,Alexandra Hospital,Anchorpoint,COMMONWEALTH MRT STATION,11471
58,MERAPRIME,1.2870709,103.8277503,Singapore General Hospital,Tiong Bahru Plaza,TIONG BAHRU MRT STATION,10169
59,HARVEST MANSIONS,1.2897393,103.8318842,Singapore General Hospital,Great World City,TIONG BAHRU MRT STATION,10229
60,ASCENTIA SKY,1.2908119,103.8170081,Alexandra Hospital,Tiong Bahru Plaza,REDHILL MRT STATION,10271
61,TANGLIN VIEW,1.2921069,103.8179565,Gleneagles Hospital,Tiong Bahru Plaza,REDHILL MRT STATION,10279
62,KAI FOOK MANSION,1.2852782,103.829291,Singapore General Hospital,Tiong Bahru Plaza,TIONG BAHRU MRT STATION,10151
63,EMERALD PARK,1.289795907,103.8301097,Singapore General Hospital,Great World City,TIONG BAHRU MRT STATION,10221
64,DOMAIN 21,1.2917798,103.8255674,Singapore General Hospital,Tiong Bahru Plaza,TIONG BAHRU MRT STATION,10519
65,TWIN REGENCY,1.284725,103.8286243,Singapore General Hospital,Tiong Bahru Plaza,TIONG BAHRU MRT STATION,10151
66,REGENCY SUITES,1.2843806,103.8292793,Singapore General Hospital,Tiong Bahru Plaza,TIONG BAHRU MRT STATION,10151
67,ALESSANDREA,1.2905839,103.8224665,Singapore General Hospital,Tiong Bahru Plaza,REDHILL MRT STATION,10241
68,QUEENSWAY TOWER,1.2873168,103.8033576,Alexandra Hospital,Queensway Shopping Centre,QUEENSTOWN MRT STATION,11519
69,YONG SIAK VIEW,1.2830484,103.8300626,Singapore General Hospital,Tiong Bahru Plaza,TIONG BAHRU MRT STATION,10121
70,ENG HOON MANSIONS,1.2836095,103.8344418,Singapore General Hospital,Tiong Bahru Plaza,OUTRAM PARK MRT STATION,6051
71,CLYDESVIEW,1.2942781,103.818094,Gleneagles Hospital,Tiong Bahru Plaza,REDHILL MRT STATION,10329
72,CARIBBEAN AT KEPPEL BAY,1.2674851,103.8161036,Singapore General Hospital,Tiong Bahru Plaza,HARBOURFRONT MRT STATION,14131
73,HARBOURLIGHTS,1.2663231,103.8227392,Singapore General Hospital,Tiong Bahru Plaza,HARBOURFRONT MRT STATION,14119
74,THE OCEANFRONT @ SENTOSA COVE,1.2440362,103.8427331,Singapore General Hospital,100 AM,HARBOURFRONT MRT STATION,14519
75,HARBOUR VIEW TOWERS,1.2718495,103.8087823,Alexandra Hospital,Alexandra Central,TELOK BLANGAH MRT STATION,14169
76,MARINA COLLECTION,1.2440927,103.8397807,Singapore General Hospital,100 AM,HARBOURFRONT MRT STATION,14519
77,THE RESIDENCES AT W SINGAPORE SENTOSA COVE,1.2462857,103.8423347,Singapore General Hospital,100 AM,HARBOURFRONT MRT STATION,14519
78,REFLECTIONS AT KEPPEL BAY,1.2668201,103.8106976,Alexandra Hospital,Alexandra Central,TELOK BLANGAH MRT STATION,14151
79,SKYLINE RESIDENCES,1.2713549,103.808005,Alexandra Hospital,Alexandra Central,TELOK BLANGAH MRT STATION,14169
80,SEASCAPE,1.239395,103.837503,Singapore General Hospital,100 AM,HARBOURFRONT MRT STATION,14519
81,CAPE ROYALE,1.2413532,103.8401485,Singapore General Hospital,100 AM,HARBOURFRONT MRT STATION,14519
82,HARBOUR SUITES,1.2723608,103.8276457,Singapore General Hospital,Tiong Bahru Plaza,HARBOURFRONT MRT STATION,14239
83,THE INTERLACE,1.2818766,103.8029252,Alexandra Hospital,Queensway Shopping Centre,LABRADOR PARK MRT STATION,14369
84,THE PEARL @ MOUNT FABER,1.2706934,103.8245499,Singapore General Hospital,Tiong Bahru Plaza,HARBOURFRONT MRT STATION,14021
85,CORALS AT KEPPEL BAY,1.2655778,103.8165701,Singapore General Hospital,Tiong Bahru Plaza,HARBOURFRONT MRT STATION,14131
86,TERESA VILLE,1.2764724,103.824224,Singapore General Hospital,Tiong Bahru Plaza,TIONG BAHRU MRT STATION,14039
87,THE COAST AT SENTOSA COVE,1.2457088,103.843791,Singapore General Hospital,100 AM,HARBOURFRONT MRT STATION,14519
88,THE AZURE,1.2516101,103.8480291,Singapore General Hospital,100 AM,MARINA SOUTH PIER MRT STATION,3421
89,THE BERTH BY THE COVE,1.2499045,103.8464074,Singapore General Hospital,100 AM,TANJONG PAGAR MRT STATION,14519
90,MOUNT FABER LODGE,1.2688561,103.8243159,Singapore General Hospital,Tiong Bahru Plaza,HARBOURFRONT MRT STATION,14019
91,THE FORESTA @ MOUNT FABER,1.2704484,103.8138523,Alexandra Hospital,Alexandra Central,TELOK BLANGAH MRT STATION,14159
92,TURQUOISE,1.242368,103.836403,Singapore General Hospital,100 AM,HARBOURFRONT MRT STATION,14519
93,SEVEN PALMS SENTOSA COVE,1.2398652,103.8311367,Singapore General Hospital,100 AM,HARBOURFRONT MRT STATION,14519
94,PERMAI RESIDENCES,1.2720139,103.8272739,Singapore General Hospital,Tiong Bahru Plaza,HARBOURFRONT MRT STATION,14239
95,TELOK BLANGAH HOUSE,1.2661746,103.8233469,Singapore General Hospital,Tiong Bahru Plaza,HARBOURFRONT MRT STATION,14119
96,BOTANNIA,1.3181922,103.7543317,Jurong Community Hospital,The Clementi Mall,CLEMENTI MRT STATION,20031
97,PASIR PANJANG COURT,1.291924,103.772359,National University Hospital,West Coast Plaza,KENT RIDGE MRT STATION,16079
98,HERITAGE VIEW,1.304569,103.783461,National University Hospital,Rochester Mall,ONE-NORTH MRT STATION,19089
99,BLUE HORIZON,1.2971897,103.7651751,National University Hospital,West Coast Plaza,CLEMENTI MRT STATION,17369
100,ONE-NORTH RESIDENCES,1.3024093,103.7899322,National University Hospital,Rochester Mall,ONE-NORTH MRT STATION,18151
101,TWIN VEW,1.3196317,103.7525081,Jurong Community Hospital,The Clementi Mall,CLEMENTI MRT STATION,20031
102,THE ROCHESTER RESIDENCES,1.3055942,103.7881836,National University Hospital,Rochester Mall,BUONA VISTA MRT STATION,18141
103,NORMANTON PARK,1.2882768,103.7923127,Alexandra Hospital,Queensway Shopping Centre,KENT RIDGE MRT STATION,18041
104,WHISTLER GRAND,1.319422,103.7537108,Jurong Community Hospital,The Clementi Mall,CLEMENTI MRT STATION,20031
105,PARC RIVIERA,1.320699,103.7530877,Jurong Community Hospital,The Clementi Mall,CLEMENTI MRT STATION,20031
106,KENT RIDGE HILL RESIDENCES,1.2811659,103.789735,Alexandra Hospital,Queensway Shopping Centre,PASIR PANJANG MRT STATION,15091
107,LUXE VILLE,1.2891171,103.7770064,National University Hospital,West Coast Plaza,HAW PAR VILLA MRT STATION,16049
108,DOVER PARKVIEW,1.3057328,103.7838192,National University Hospital,Rochester Mall,BUONA VISTA MRT STATION,19011
109,BANYAN CONDOMINIUM,1.2780251,103.7883466,Alexandra Hospital,Queensway Shopping Centre,PASIR PANJANG MRT STATION,15219
110,WESTPOINT CONDOMINIUM,1.2767176,103.7934625,Alexandra Hospital,Queensway Shopping Centre,PASIR PANJANG MRT STATION,15199
111,THE CLEMENT CANOPY,1.3072306,103.7686049,National University Hospital,West Coast Plaza,CLEMENTI MRT STATION,16991
112,HUNDRED TREES,1.3148265,103.7588911,Jurong Community Hospital,The Clementi Mall,CLEMENTI MRT STATION,20021
113,REGENT PARK,1.317532227,103.7612475,Jurong Community Hospital,The Clementi Mall,CLEMENTI MRT STATION,17059
114,FABER CREST,1.32357,103.756686,Jurong Community Hospital,The Clementi Mall,CLEMENTI MRT STATION,28011
115,THE PARC CONDOMINIUM,1.310173,103.7617538,National University Hospital,321 Clementi,CLEMENTI MRT STATION,17071
116,THE TRILINQ,1.3187273,103.7616745,Jurong Community Hospital,The Clementi Mall,CLEMENTI MRT STATION,20101
117,THE CASSANDRA,1.2762372,103.7929985,Alexandra Hospital,Queensway Shopping Centre,PASIR PANJANG MRT STATION,15199
118,THE VISION,1.2982948,103.7648522,National University Hospital,West Coast Plaza,CLEMENTI MRT STATION,17369
119,CARABELLE,1.317568631,103.7570386,Jurong Community Hospital,The Clementi Mall,CLEMENTI MRT STATION,20029
120,WESTCOVE CONDOMINIUM,1.2979599,103.7664936,National University Hospital,West Coast Plaza,CLEMENTI MRT STATION,17381
121,THE GRANDHILL,1.2815532,103.7849964,National University Hospital,Queensway Shopping Centre,HAW PAR VILLA MRT STATION,16201
122,THE ESTRELLA,1.2895531,103.7766869,National University Hospital,West Coast Plaza,HAW PAR VILLA MRT STATION,16041
123,VIVA VISTA,1.2797197,103.7859924,National University Hospital,Queensway Shopping Centre,HAW PAR VILLA MRT STATION,15229
124,VENTANA,1.2825329,103.7847881,National University Hospital,Queensway Shopping Centre,HAW PAR VILLA MRT STATION,16209
125,BAYVILLE CONDOMINIUM,1.281208,103.787813,National University Hospital,Queensway Shopping Centre,PASIR PANJANG MRT STATION,15071
126,THE PEAK@BALMEG,1.283174,103.7833739,National University Hospital,Queensway Shopping Centre,HAW PAR VILLA MRT STATION,16019
127,MONTEREY PARK CONDOMINIUM,1.3162622,103.7530385,Jurong Community Hospital,The Clementi Mall,CLEMENTI MRT STATION,20139
128,THE ORIENT,1.2810814,103.7838098,National University Hospital,Queensway Shopping Centre,HAW PAR VILLA MRT STATION,16201
129,VARSITY PARK CONDOMINIUM,1.2944892,103.7674126,National University Hospital,West Coast Plaza,KENT RIDGE MRT STATION,17019
130,ISLAND VIEW,1.279649191,103.791561,Alexandra Hospital,Queensway Shopping Centre,PASIR PANJANG MRT STATION,15209
131,WEST SEA GARDENS,1.2750187,103.794813,Alexandra Hospital,Queensway Shopping Centre,PASIR PANJANG MRT STATION,15199
132,FRAGRANCE COURT,1.2771928,103.7930165,Alexandra Hospital,Queensway Shopping Centre,PASIR PANJANG MRT STATION,15199
133,PALM MANSIONS,1.289223,103.776328,National University Hospital,West Coast Plaza,HAW PAR VILLA MRT STATION,16041
134,SEAHILL,1.2989437,103.7642323,National University Hospital,West Coast Plaza,CLEMENTI MRT STATION,17369
135,THE SORRENTO,1.2956758,103.7661813,National University Hospital,West Coast Plaza,KENT RIDGE MRT STATION,17309
136,WEST BAY CONDOMINIUM,1.2991307,103.7659674,National University Hospital,West Coast Plaza,CLEMENTI MRT STATION,17381
137,PARC IMPERIAL,1.2815476,103.7834153,National University Hospital,Queensway Shopping Centre,HAW PAR VILLA MRT STATION,16209
138,THE SPECTRUM,1.291401,103.768864,National University Hospital,West Coast Plaza,HAW PAR VILLA MRT STATION,16081
139,GOLD COAST CONDOMINIUM,1.290403,103.774851,National University Hospital,West Coast Plaza,KENT RIDGE MRT STATION,16051
140,SEASUITES,1.282408,103.7832049,National University Hospital,Queensway Shopping Centre,HAW PAR VILLA MRT STATION,16019
141,CLEMENTIWOODS CONDOMINIUM,1.2960833,103.7675743,National University Hospital,West Coast Plaza,KENT RIDGE MRT STATION,17021
142,NEWEST,1.3157593,103.7577519,Jurong Community Hospital,The Clementi Mall,CLEMENTI MRT STATION,20021
143,LE HILL CONDOMINIUM,1.283092,103.785123,National University Hospital,Queensway Shopping Centre,HAW PAR VILLA MRT STATION,16209
144,HORIZON RESIDENCES,1.281957,103.7844432,National University Hospital,Queensway Shopping Centre,HAW PAR VILLA MRT STATION,16209
145,PASIR VIEW PARK,1.2781211,103.7871639,National University Hospital,Queensway Shopping Centre,PASIR PANJANG MRT STATION,15219
146,THE VERANDAH RESIDENCES,1.2795865,103.7852017,National University Hospital,Queensway Shopping Centre,HAW PAR VILLA MRT STATION,15221
147,D' HILLSIDE LOFT,1.2813296,103.7854751,National University Hospital,Queensway Shopping Centre,HAW PAR VILLA MRT STATION,16201
148,BUONA VISTA GARDENS,1.2821713,103.7870302,National University Hospital,Queensway Shopping Centre,HAW PAR VILLA MRT STATION,15071
149,VILLA DE WEST,1.2908191,103.7723792,National University Hospital,West Coast Plaza,KENT RIDGE MRT STATION,16069
150,BUONA LODGE,1.2817204,103.786855,National University Hospital,Queensway Shopping Centre,HAW PAR VILLA MRT STATION,15071
151,MENDON SPRING,1.2782762,103.7874314,National University Hospital,Queensway Shopping Centre,PASIR PANJANG MRT STATION,15219
152,WEST PARK REGENCY,1.289711,103.776509,National University Hospital,West Coast Plaza,KENT RIDGE MRT STATION,16041
153,BIJOU,1.2768838,103.7915573,Alexandra Hospital,Queensway Shopping Centre,PASIR PANJANG MRT STATION,15209
154,THE MAYLEA,1.2806563,103.7853635,National University Hospital,Queensway Shopping Centre,HAW PAR VILLA MRT STATION,15221
155,WHITEHAVEN,1.289922885,103.7775856,National University Hospital,West Coast Plaza,KENT RIDGE MRT STATION,16049
156,ICON @ PASIR PANJANG,1.2792617,103.7859138,National University Hospital,Queensway Shopping Centre,HAW PAR VILLA MRT STATION,15229
157,VILLAGE @ PASIR PANJANG,1.2911302,103.7701665,National University Hospital,West Coast Plaza,KENT RIDGE MRT STATION,17299
158,MURANO,1.295178084,103.7759459,National University Hospital,West Coast Plaza,KENT RIDGE MRT STATION,18311
159,WATERFRONT @ FABER,1.3232117,103.754716,Jurong Community Hospital,The Clementi Mall,CLEMENTI MRT STATION,20039
160,PALM GREEN,1.291737785,103.7699354,National University Hospital,West Coast Plaza,KENT RIDGE MRT STATION,16089
161,24 ONE RESIDENCES,1.2803281,103.7847565,National University Hospital,Queensway Shopping Centre,HAW PAR VILLA MRT STATION,15221
162,HARBOUR VIEW GARDENS,1.2790729,103.785045,National University Hospital,Queensway Shopping Centre,HAW PAR VILLA MRT STATION,15221
163,THE INFINITI,1.3192796,103.7554499,Jurong Community Hospital,The Clementi Mall,CLEMENTI MRT STATION,20031
164,TREASURE PLACE,1.2804993,103.789033,Alexandra Hospital,Queensway Shopping Centre,PASIR PANJANG MRT STATION,15071
165,THE STELLAR,1.2936601,103.7678261,National University Hospital,West Coast Plaza,KENT RIDGE MRT STATION,17019
166,CRYSTAL HEIGHTS,1.281564,103.785709,National University Hospital,Queensway Shopping Centre,HAW PAR VILLA MRT STATION,15071
167,LIIV RESIDENCES,1.2885848,103.7766584,National University Hospital,West Coast Plaza,HAW PAR VILLA MRT STATION,16041
168,RIA APARTMENTS,1.276608,103.7925813,Alexandra Hospital,Queensway Shopping Centre,PASIR PANJANG MRT STATION,15191
169,PASIR PANJANG LODGE,1.291343,103.772405,National University Hospital,West Coast Plaza,KENT RIDGE MRT STATION,16069
170,THE ESTIVA,1.2879295,103.7783472,National University Hospital,West Coast Plaza,HAW PAR VILLA MRT STATION,16031
171,THE FOLIAGE,1.2906024,103.7741254,National University Hospital,West Coast Plaza,KENT RIDGE MRT STATION,16051
172,FABER HILLS,1.320574,103.756543,Jurong Community Hospital,The Clementi Mall,CLEMENTI MRT STATION,20039
173,PASIR PANJANG GARDENS,1.3084342,103.7622947,National University Hospital,321 Clementi,CLEMENTI MRT STATION,17069
174,KENTVIEW PARK,1.2822413,103.7854094,National University Hospital,Queensway Shopping Centre,HAW PAR VILLA MRT STATION,16209
175,JUBILEE RESIDENCE,1.289461,103.775388,National University Hospital,West Coast Plaza,HAW PAR VILLA MRT STATION,16059
176,LANDRIDGE CONDOMINIUM,1.2786182,103.7864224,National University Hospital,Queensway Shopping Centre,PASIR PANJANG MRT STATION,15211
177,WEST-N,1.282198,103.783491,National University Hospital,Queensway Shopping Centre,HAW PAR VILLA MRT STATION,16209
178,SARHAD VILLE,1.2804273,103.7884621,National University Hospital,Queensway Shopping Centre,PASIR PANJANG MRT STATION,15079
179,THE PEAK,1.281216,103.793015,Alexandra Hospital,Queensway Shopping Centre,PASIR PANJANG MRT STATION,15209
180,PALISADES,1.287101,103.780099,National University Hospital,Rochester Mall,HAW PAR VILLA MRT STATION,16021
181,PEPYS HILL CONDOMINIUM,1.2775724,103.7938976,Alexandra Hospital,Queensway Shopping Centre,PASIR PANJANG MRT STATION,15199
182,GLORIA MANSION,1.2869042,103.7803855,National University Hospital,Rochester Mall,HAW PAR VILLA MRT STATION,16029
183,PARC REGENCY,1.29604,103.778943,National University Hospital,Rochester Mall,KENT RIDGE MRT STATION,18319
185,FLYNN PARK,1.2780111,103.7931908,Alexandra Hospital,Queensway Shopping Centre,PASIR PANJANG MRT STATION,15199
186,HIGH STREET CENTRE,1.2900089,103.8494332,Raffles Hospital,Funan,CLARKE QUAY MRT STATION,4251
187,EDEN RESIDENCES CAPITOL,1.292899,103.851093,Raffles Hospital,Capitol Piazza,CITY HALL MRT STATION,4167
188,DUO RESIDENCES,1.3000973,103.8584355,Raffles Hospital,Duo,BUGIS MRT STATION,1549
189,SUNSHINE PLAZA,1.309277584,103.850183,KK Women's and Children's Hospital,Tekka Centre,LITTLE INDIA MRT STATION,40109
190,SOUTHBANK,1.30618828,103.8643704,Raffles Hospital,Aperia,LAVENDER MRT STATION,1341
191,CITY GATE,1.3022509,103.8625132,Raffles Hospital,Duo,NICOLL HIGHWAY MRT STATION,1411
192,THE BENCOOLEN,1.3016941,103.8532843,Raffles Hospital,Sim Lim Square,ROCHOR MRT STATION,7517
193,LIANG SEAH PLACE,1.2978582,103.856479,Raffles Hospital,Bugis Cube,BUGIS MRT STATION,1621
194,LIANG SEAH COURT,1.2984385,103.8560573,Raffles Hospital,Bugis Cube,BUGIS MRT STATION,1039
195,CONCOURSE SKYLINE,1.301066,103.8625531,Raffles Hospital,Duo,NICOLL HIGHWAY MRT STATION,80161
196,THE PLAZA,1.2999483,103.8605979,Raffles Hospital,Duo,NICOLL HIGHWAY MRT STATION,1529
197,SOUTH BEACH RESIDENCES,1.2942557,103.856104,Raffles Hospital,The South Beach,ESPLANADE MRT STATION,1619
199,SULTAN GATE PLACE,1.3017078,103.8606439,Raffles Hospital,Duo,NICOLL HIGHWAY MRT STATION,1521
200,TEXTILE CENTRE,1.3036547,103.8612408,Raffles Hospital,Duo,LAVENDER MRT STATION,1231
201,HERITAGE PLACE,1.298574,103.856415,Raffles Hospital,Bugis Cube,BUGIS MRT STATION,1541
202,BURLINGTON SQUARE,1.3023144,103.8525688,Raffles Hospital,Sim Lim Square,ROCHOR MRT STATION,7517
203,KENG SOON BLDG,1.3015986,103.8514952,Raffles Hospital,Sunshine Plaza,ROCHOR MRT STATION,7518
204,THE 101,1.2977682,103.8570022,Raffles Hospital,Bugis Cube,BUGIS MRT STATION,1629
205,SIN THAI HIN BUILDING,1.3019293,103.8516679,Raffles Hospital,Sim Lim Square,ROCHOR MRT STATION,7517
206,TALIB CENTRE,1.2964499,103.8549138,Raffles Hospital,Bugis Cube,ESPLANADE MRT STATION,1029
207,TANQUEELAN SUITES,1.298299,103.85669,Raffles Hospital,Bugis Cube,BUGIS MRT STATION,1541
208,BENCOOLEN HOUSE,1.2988155,103.8498808,Raffles Hospital,Sunshine Plaza,BENCOOLEN MRT STATION,4019
209,AN CHUAN BUILDING,1.296256,103.8553336,Raffles Hospital,The South Beach,ESPLANADE MRT STATION,1631
210,GOLDEN MILE COMPLEX,1.299508,103.8592765,Raffles Hospital,Duo,BUGIS MRT STATION,1519
211,WATERLOO VIEW,1.3007577,103.8527011,Raffles Hospital,Sunshine Plaza,BENCOOLEN MRT STATION,7518
212,TAN SEE SWAN & SONS BUILDING,1.2840804,103.8430136,Singapore General Hospital,People's Park Complex,CHINATOWN MRT STATION,5013
213,KAMPONG GLAM CONSERVATION AREA,1.3015584,103.8623134,Raffles Hospital,Duo,NICOLL HIGHWAY MRT STATION,1411
214,TYRWHITT 139,1.3115682,103.8600386,Farrer Park Hospital,City Square Mall,BENDEMEER MRT STATION,7329
215,SUITES 123,1.3151489,103.8533729,Farrer Park Hospital,City Square Mall,FARRER PARK MRT STATION,50261
216,CITYLIGHTS,1.3090266,103.8631265,Raffles Hospital,Aperia,LAVENDER MRT STATION,7371
217,OXFORD SUITES,1.3156788,103.8525248,Farrer Park Hospital,City Square Mall,FARRER PARK MRT STATION,50301
218,STURDEE RESIDENCES,1.3129796,103.859027,Farrer Park Hospital,City Square Mall,BENDEMEER MRT STATION,7329
219,KERRISDALE,1.313443553,103.8579481,Farrer Park Hospital,City Square Mall,FARRER PARK MRT STATION,7221
220,STUDIOS @ MARNE,1.3129469,103.8569232,Farrer Park Hospital,City Square Mall,FARRER PARK MRT STATION,7211
221,28 RC SUITES,1.3098618,103.8529436,Farrer Park Hospital,City Square Mall,FARRER PARK MRT STATION,7111
222,RANGOON 88,1.3142276,103.8542311,Farrer Park Hospital,City Square Mall,FARRER PARK MRT STATION,50251
223,CITY SQUARE RESIDENCES,1.3108008,103.8571769,Farrer Park Hospital,City Square Mall,FARRER PARK MRT STATION,7231
224,JOOL SUITES,1.315246,103.8550069,Farrer Park Hospital,City Square Mall,FARRER PARK MRT STATION,50261
225,RESIDENCES @ SOMME,1.3116164,103.8587065,Farrer Park Hospital,City Square Mall,FARRER PARK MRT STATION,7319
226,8 FARRER SUITES,1.3148569,103.85474,Farrer Park Hospital,City Square Mall,FARRER PARK MRT STATION,50261
227,1953,1.3165334,103.8576999,Farrer Park Hospital,City Square Mall,BOON KENG MRT STATION,50241
228,SOHO 188,1.3112481,103.8533682,Farrer Park Hospital,City Square Mall,FARRER PARK MRT STATION,50279
229,RITZ @ FARRER,1.3101255,103.8522732,Farrer Park Hospital,Tekka Centre,FARRER PARK MRT STATION,7111
230,CITYSCAPE @FARRER PARK,1.3177793,103.8512795,Farrer Park Hospital,Velocity@Novena Square,FARRER PARK MRT STATION,50089
231,PARC SOMME,1.311214,103.858476,Farrer Park Hospital,City Square Mall,FARRER PARK MRT STATION,7319
232,SAM LEONG MANSION,1.308936,103.857083,Farrer Park Hospital,City Square Mall,JALAN BESAR MRT STATION,7231
233,THE URBANITE,1.3134554,103.8483174,KK Women's and Children's Hospital,United Square,FARRER PARK MRT STATION,50351
234,70@TRURO,1.3149092,103.8490489,KK Women's and Children's Hospital,United Square,FARRER PARK MRT STATION,50081
235,LE SOMME,1.3112352,103.8584535,Farrer Park Hospital,City Square Mall,FARRER PARK MRT STATION,7319
236,FORTE SUITES,1.317878,103.8519194,Farrer Park Hospital,City Square Mall,FARRER PARK MRT STATION,50089
237,SUITES @ OWEN,1.3140925,103.8529544,Farrer Park Hospital,City Square Mall,FARRER PARK MRT STATION,50279
238,CAVAN SUITES,1.3108751,103.8612423,Farrer Park Hospital,Aperia,BENDEMEER MRT STATION,7361
239,KENTISH LODGE,1.3158338,103.8529992,Farrer Park Hospital,City Square Mall,FARRER PARK MRT STATION,50261
240,THE CITRON RESIDENCES,1.3126698,103.8575104,Farrer Park Hospital,City Square Mall,FARRER PARK MRT STATION,7211
241,JALAN BESAR PLAZA,1.3087498,103.8580162,Farrer Park Hospital,City Square Mall,JALAN BESAR MRT STATION,7331
242,PRISTINE HEIGHTS,1.3169296,103.8518847,Farrer Park Hospital,City Square Mall,FARRER PARK MRT STATION,50301
243,CITY LOFT,1.3150829,103.8566942,Farrer Park Hospital,City Square Mall,FARRER PARK MRT STATION,7221
244,RACE COURSE MANSION,1.31034527,103.8523082,Farrer Park Hospital,Tekka Centre,FARRER PARK MRT STATION,7111
245,CITIGATE RESIDENCE,1.3021994,103.8621455,Raffles Hospital,Duo,NICOLL HIGHWAY MRT STATION,1411
246,HONG BUILDING,1.3175243,103.8529957,Farrer Park Hospital,City Square Mall,FARRER PARK MRT STATION,50261
247,STURDEE VIEW,1.3137257,103.8577566,Farrer Park Hospital,City Square Mall,FARRER PARK MRT STATION,7221
248,KENTISH GREEN,1.3158144,103.8520344,Farrer Park Hospital,City Square Mall,FARRER PARK MRT STATION,50301
249,THE MERLOT,1.3143937,103.8463401,KK Women's and Children's Hospital,United Square,NOVENA MRT STATION,50071
250,URBAN LOFTS,1.3140974,103.8539315,Farrer Park Hospital,City Square Mall,FARRER PARK MRT STATION,50251
251,KENG LEE COURT,1.3125938,103.8471089,KK Women's and Children's Hospital,United Square,LITTLE INDIA MRT STATION,50011
252,UPTOWN @ FARRER,1.3126963,103.8556448,Farrer Park Hospital,City Square Mall,FARRER PARK MRT STATION,50259
253,KENG LEE VIEW,1.3140123,103.8460184,KK Women's and Children's Hospital,United Square,NOVENA MRT STATION,50071
254,HOA NAM BUILDING,1.3126996,103.8599433,Farrer Park Hospital,City Square Mall,BENDEMEER MRT STATION,7329
255,KING'S COURT,1.314605,103.846305,KK Women's and Children's Hospital,United Square,NOVENA MRT STATION,50071
256,R66 APARTMENTS,1.3140576,103.8544454,Farrer Park Hospital,City Square Mall,FARRER PARK MRT STATION,50251
257,HERTFORD MANSION,1.313846571,103.8488914,KK Women's and Children's Hospital,United Square,FARRER PARK MRT STATION,50351
258,SOHO @ FARRER,1.3108262,103.8529039,Farrer Park Hospital,City Square Mall,FARRER PARK MRT STATION,50279
259,KENT RESIDENCES,1.3160596,103.852002,Farrer Park Hospital,City Square Mall,FARRER PARK MRT STATION,50301
260,HERTFORD COLLECTION,1.3133639,103.848945,KK Women's and Children's Hospital,United Square,FARRER PARK MRT STATION,50351
261,KENTISH COURT,1.3152745,103.8523384,Farrer Park Hospital,City Square Mall,FARRER PARK MRT STATION,50301
262,FARRER PARK SUITES,1.3132474,103.8536777,Farrer Park Hospital,City Square Mall,FARRER PARK MRT STATION,50279
264,SPA BUILDING,1.310035,103.85587,Farrer Park Hospital,City Square Mall,FARRER PARK MRT STATION,7231
265,CLYDES RESIDENCE,1.3172798,103.8521966,Farrer Park Hospital,City Square Mall,FARRER PARK MRT STATION,50301
266,D'CAMBRIDGE,1.314797653,103.8487072,KK Women's and Children's Hospital,United Square,FARRER PARK MRT STATION,50071
267,VERDUN HOUSE,1.3098562,103.8561344,Farrer Park Hospital,City Square Mall,FARRER PARK MRT STATION,7231
268,CITY STUDIOS,1.310044,103.8527844,Farrer Park Hospital,City Square Mall,FARRER PARK MRT STATION,7111
269,MERA SPRINGS,1.3149582,103.8468142,KK Women's and Children's Hospital,United Square,NOVENA MRT STATION,50071
270,MERGUI MANSIONS,1.317178,103.851686,Farrer Park Hospital,City Square Mall,FARRER PARK MRT STATION,50301
271,LOFT @ RANGOON,1.314978,103.853607,Farrer Park Hospital,City Square Mall,FARRER PARK MRT STATION,50261
272,CAMBRIDGE VILLAGE,1.313621805,103.8473046,KK Women's and Children's Hospital,United Square,FARRER PARK MRT STATION,50019
273,RACE COURSE 138,1.3100074,103.8522385,Farrer Park Hospital,Tekka Centre,FARRER PARK MRT STATION,7111
274,GOODLAND BUILDING,1.3106174,103.8537053,Farrer Park Hospital,City Square Mall,FARRER PARK MRT STATION,7111
275,VANADIUM,1.3128098,103.8476913,KK Women's and Children's Hospital,United Square,LITTLE INDIA MRT STATION,50019
276,THE BLISS,1.3097843,103.8520817,Farrer Park Hospital,Tekka Centre,FARRER PARK MRT STATION,7111
277,RANGOON VIEW,1.315261005,103.8538499,Farrer Park Hospital,City Square Mall,FARRER PARK MRT STATION,50261
278,CARLYX RESIDENCE,1.3133524,103.8479689,KK Women's and Children's Hospital,United Square,FARRER PARK MRT STATION,50351
279,BLISS REGALIA,1.316222,103.8541968,Farrer Park Hospital,City Square Mall,FARRER PARK MRT STATION,50261
280,RANGOON COURT,1.314802475,103.8538261,Farrer Park Hospital,City Square Mall,FARRER PARK MRT STATION,50261
281,WISMA M.T.F.A.,1.3037148,103.8332642,Mount Elizabeth Hospital,Wisma Atria,ORCHARD MRT STATION,9047
282,RACE COURSE RD/OWEN RD CON AREA,1.3129518,103.8537272,Farrer Park Hospital,City Square Mall,FARRER PARK MRT STATION,50279
283,VOGX,1.3138957,103.8504267,Farrer Park Hospital,City Square Mall,FARRER PARK MRT STATION,50321
284,CARLYX GREEN,1.3131639,103.8478248,KK Women's and Children's Hospital,United Square,FARRER PARK MRT STATION,50019
285,ZAMAN CENTRE,1.3101331,103.8543087,Farrer Park Hospital,City Square Mall,FARRER PARK MRT STATION,7111
286,LITTLE INDIA CONSERVATION AREA,1.3065597,103.851819,KK Women's and Children's Hospital,Tekka Centre,LITTLE INDIA MRT STATION,7031
287,FUTSING BUILDING,1.3105486,103.8592759,Farrer Park Hospital,City Square Mall,LAVENDER MRT STATION,7319
288,DESKER ROAD CONSERVATION AREA,1.3089331,103.8553492,Farrer Park Hospital,City Square Mall,JALAN BESAR MRT STATION,7231
289,OWEN COURT,1.313734,103.8531064,Farrer Park Hospital,City Square Mall,FARRER PARK MRT STATION,50279
290,KINTA SUITES,1.306858,103.855749,Raffles Hospital,City Square Mall,JALAN BESAR MRT STATION,7419
291,LILY TAN MANSION,1.313319,103.84988,Farrer Park Hospital,Tekka Centre,FARRER PARK MRT STATION,50321
292,THE BAYRON,1.297841,103.837581,Mount Elizabeth Hospital,313@Somerset,SOMERSET MRT STATION,13081
293,THE COSMOPOLITAN,1.295909585,103.8327424,Mount Elizabeth Hospital,Great World City,SOMERSET MRT STATION,13079
294,THE TRILLIUM,1.294104,103.833056,Mount Elizabeth Hospital,Great World City,SOMERSET MRT STATION,13119
295,THE SCOTTS TOWER,1.3099741,103.8353518,Mount Elizabeth Hospital,Far East Plaza,NEWTON MRT STATION,40171
296,RV POINT,1.2938996,103.8421493,Mount Elizabeth Hospital,Orchard Plaza,FORT CANNING MRT STATION,13101
297,MARTIN MODERN,1.2929557,103.8375854,Mount Elizabeth Hospital,Great World City,FORT CANNING MRT STATION,13089
298,ROBERTSON BLUE,1.290478,103.8372246,Singapore General Hospital,Great World City,FORT CANNING MRT STATION,6159
299,THE VERMONT ON CAIRNHILL,1.308584,103.8384426,Mount Elizabeth Hospital,Far East Plaza,NEWTON MRT STATION,40179
300,HELIOS RESIDENCES,1.3067773,103.8379522,Mount Elizabeth Hospital,The Paragon,NEWTON MRT STATION,9037
301,CAIRNHILL NINE,1.303817,103.837257,Mount Elizabeth Hospital,Knightsbridge,SOMERSET MRT STATION,9037
302,UP@ROBERTSON QUAY,1.2909701,103.8374874,Singapore General Hospital,Great World City,FORT CANNING MRT STATION,6159
303,WATERSCAPE AT CAVENAGH,1.3041727,103.8406466,Mount Elizabeth Hospital,The Centrepoint,SOMERSET MRT STATION,9038
304,WATERFORD RESIDENCE,1.2940296,103.8397635,Mount Elizabeth Hospital,Orchard Central,FORT CANNING MRT STATION,13099
305,PARC EMILY,1.3043732,103.8489075,KK Women's and Children's Hospital,Tekka Centre,LITTLE INDIA MRT STATION,7021
306,LUMA,1.296815,103.834597,Mount Elizabeth Hospital,Great World City,SOMERSET MRT STATION,13089
307,CITYVISTA RESIDENCES,1.3090049,103.8377306,Mount Elizabeth Hospital,Far East Plaza,NEWTON MRT STATION,40179
308,RICHMOND PARK,1.327712221,103.8425636,Thomson Medical Centre,Balestier Hill Shopping Centre,TOA PAYOH MRT STATION,50161
309,RV ALTITUDE,1.2963268,103.8351453,Mount Elizabeth Hospital,Great World City,SOMERSET MRT STATION,13089
310,KIM SIA COURT,1.3058875,103.8338566,Mount Elizabeth Hospital,Scotts Square,ORCHARD MRT STATION,9219
311,HAUS ON HANDY,1.2998509,103.8465474,KK Women's and Children's Hospital,Plaza Singapura,DHOBY GHAUT MRT STATION,8058
312,336 RIVER VALLEY,1.2960325,103.8384852,Mount Elizabeth Hospital,Orchard Central,SOMERSET MRT STATION,13091
313,LEONIE GARDENS,1.2983502,103.8324278,Mount Elizabeth Hospital,Ngee Ann City,ORCHARD MRT STATION,13159
314,2 RVG,1.2964919,103.8344009,Mount Elizabeth Hospital,Great World City,SOMERSET MRT STATION,13089
315,BELLE VUE RESIDENCES,1.2956671,103.8420564,Mount Elizabeth Hospital,Orchard Plaza,FORT CANNING MRT STATION,13101
316,THE ORCHARD RESIDENCES,1.3039288,103.8319492,Mount Elizabeth Hospital,ION Orchard,ORCHARD MRT STATION,9023
317,SOPHIA HILLS,1.3014663,103.8466648,KK Women's and Children's Hospital,Plaza Singapura,DHOBY GHAUT MRT STATION,8058
318,OUE TWIN PEAKS,1.299433,103.8332772,Mount Elizabeth Hospital,Ngee Ann City,ORCHARD MRT STATION,9011
319,RIVERGATE,1.2918813,103.8369741,Singapore General Hospital,Great World City,FORT CANNING MRT STATION,6159
320,ST THOMAS SUITES,1.2984292,103.835885,Mount Elizabeth Hospital,Cathay Cineleisure Orchard,SOMERSET MRT STATION,9059
321,ONE CLAYMORE,1.3076122,103.8294192,Mount Elizabeth Hospital,Palais Renaissance,ORCHARD MRT STATION,9169
322,EMILY RESIDENCE,1.3040703,103.849238,KK Women's and Children's Hospital,Tekka Centre,LITTLE INDIA MRT STATION,7021
323,THE CLAYMORE,1.3084148,103.8314185,Mount Elizabeth Hospital,Palais Renaissance,ORCHARD MRT STATION,9213
324,WATERMARK ROBERTSON QUAY,1.2899376,103.8379058,Singapore General Hospital,Great World City,FORT CANNING MRT STATION,6159
325,REIGNWOOD HAMILTON SCOTTS,1.3114189,103.8359208,Mount Elizabeth Hospital,Far East Plaza,NEWTON MRT STATION,40171
326,THE PIER AT ROBERTSON,1.2918135,103.8406509,Singapore General Hospital,Singapore Shopping Centre,FORT CANNING MRT STATION,13211
327,THE METZ,1.2992853,103.8369663,Mount Elizabeth Hospital,313@Somerset,SOMERSET MRT STATION,9059
328,8 SAINT THOMAS,1.2965729,103.8361403,Mount Elizabeth Hospital,Cathay Cineleisure Orchard,SOMERSET MRT STATION,13081
329,URBAN SUITES,1.3034586,103.8384562,Mount Elizabeth Hospital,Midpoint Orchard,SOMERSET MRT STATION,9037
330,LA CRYSTAL,1.2960476,103.836974,Mount Elizabeth Hospital,313@Somerset,SOMERSET MRT STATION,13081
331,8 HULLET,1.3030498,103.8386992,Mount Elizabeth Hospital,Midpoint Orchard,SOMERSET MRT STATION,9038
332,RIVERSHIRE,1.2966455,103.83303,Mount Elizabeth Hospital,Great World City,SOMERSET MRT STATION,13071
333,LEONIE CONDOTEL,1.2968805,103.8338986,Mount Elizabeth Hospital,Great World City,SOMERSET MRT STATION,13071
334,RIVERSIDE 48,1.2910883,103.8397776,Singapore General Hospital,Singapore Shopping Centre,FORT CANNING MRT STATION,6169
335,8 @ MOUNT SOPHIA,1.3022348,103.8461302,KK Women's and Children's Hospital,Plaza Singapura,DHOBY GHAUT MRT STATION,8057
336,THE IMPERIAL,1.29522,103.84274,Mount Elizabeth Hospital,Plaza Singapura,FORT CANNING MRT STATION,13101
337,THE BOTANIC ON LLOYD,1.297032,103.839527,Mount Elizabeth Hospital,Orchard Central,SOMERSET MRT STATION,13091
338,GRANGE INFINITE,1.2998195,103.8348482,Mount Elizabeth Hospital,Cathay Cineleisure Orchard,SOMERSET MRT STATION,9059
339,ATTITUDE AT KIM YAM,1.2956525,103.8389376,Mount Elizabeth Hospital,Orchard Central,SOMERSET MRT STATION,13091
340,VISIONCREST,1.2985935,103.8429295,Mount Elizabeth Hospital,Plaza Singapura,DHOBY GHAUT MRT STATION,8011
341,THE INSPIRA,1.2918096,103.8387398,Singapore General Hospital,Great World City,FORT CANNING MRT STATION,13211
342,LEONIE SUITES,1.2988628,103.8318578,Mount Elizabeth Hospital,Ngee Ann City,ORCHARD MRT STATION,13159
343,THE OXLEY,1.2989196,103.842204,Mount Elizabeth Hospital,Orchard Plaza,SOMERSET MRT STATION,8111
344,MIRAGE TOWER,1.2919498,103.8342371,Singapore General Hospital,Great World City,TIONG BAHRU MRT STATION,6129
345,THE WHARF RESIDENCE,1.293584,103.8402315,Mount Elizabeth Hospital,Orchard Central,FORT CANNING MRT STATION,13211
346,VALLEY MANSION,1.296505,103.840198,Mount Elizabeth Hospital,Orchard Central,SOMERSET MRT STATION,13099
347,ILLUMINAIRE ON DEVONSHIRE,1.2989725,103.8367923,Mount Elizabeth Hospital,Cathay Cineleisure Orchard,SOMERSET MRT STATION,9059
348,PATERSON SUITES,1.3010688,103.830199,Mount Elizabeth Hospital,ION Orchard,ORCHARD MRT STATION,13199
349,THE LAURELS,1.304805,103.837396,Mount Elizabeth Hospital,The Paragon,SOMERSET MRT STATION,9037
350,CLAREMONT,1.298035596,103.8377971,Mount Elizabeth Hospital,313@Somerset,SOMERSET MRT STATION,8121
351,UE SQUARE,1.2921679,103.8426697,Mount Elizabeth Hospital,Singapore Shopping Centre,FORT CANNING MRT STATION,4321
352,THE MORNINGSIDE,1.2954609,103.8357047,Mount Elizabeth Hospital,Great World City,SOMERSET MRT STATION,13089
353,ORCHARD SCOTTS,1.3097662,103.839078,Mount Elizabeth Hospital,Far East Plaza,NEWTON MRT STATION,40189
354,SAM KIANG MANSIONS,1.2981864,103.8353258,Mount Elizabeth Hospital,Cathay Cineleisure Orchard,SOMERSET MRT STATION,9059
355,SCOTTS SQUARE,1.3058788,103.8329554,Mount Elizabeth Hospital,Scotts Square,ORCHARD MRT STATION,9212
356,SUITES AT ORCHARD,1.3005746,103.8458503,KK Women's and Children's Hospital,Plaza Singapura,DHOBY GHAUT MRT STATION,8057
357,ASPEN HEIGHTS,1.2951395,103.8403507,Mount Elizabeth Hospital,Orchard Central,FORT CANNING MRT STATION,13099
358,TRIBECA,1.29808142,103.8325308,Mount Elizabeth Hospital,Great World City,ORCHARD MRT STATION,13071
359,HORIZON TOWERS,1.2983254,103.8333551,Mount Elizabeth Hospital,Ngee Ann City,ORCHARD MRT STATION,13071
360,HIJAUAN,1.3036134,103.8411883,Mount Elizabeth Hospital,Orchard Plaza,SOMERSET MRT STATION,8137
361,SKYLINE 360 @ SAINT THOMAS WALK,1.2967203,103.8370051,Mount Elizabeth Hospital,313@Somerset,SOMERSET MRT STATION,13081
362,THE BEAUMONT,1.299402,103.836196,Mount Elizabeth Hospital,Cathay Cineleisure Orchard,SOMERSET MRT STATION,9059
363,MARTIN EDGE,1.2923384,103.8375094,Mount Elizabeth Hospital,Great World City,FORT CANNING MRT STATION,6159
364,OLEANAS RESIDENCE,1.2934173,103.8390921,Mount Elizabeth Hospital,Great World City,FORT CANNING MRT STATION,13211
365,HILLTOPS,1.3074538,103.8384657,Mount Elizabeth Hospital,The Paragon,NEWTON MRT STATION,40179
366,WILKIE 80,1.3029619,103.8476502,KK Women's and Children's Hospital,Plaza Singapura,LITTLE INDIA MRT STATION,7021
367,CAIRNHILL PLAZA,1.3063319,103.8368636,Mount Elizabeth Hospital,The Paragon,ORCHARD MRT STATION,9048
368,GRANGE HEIGHTS,1.2979762,103.8349783,Mount Elizabeth Hospital,Cathay Cineleisure Orchard,SOMERSET MRT STATION,13081
369,NIVEN SUITES,1.3026641,103.849061,KK Women's and Children's Hospital,Sunshine Plaza,ROCHOR MRT STATION,7021
370,DEVONSHIRE BUILDING,1.2981979,103.8380107,Mount Elizabeth Hospital,313@Somerset,SOMERSET MRT STATION,8121
371,ESPADA,1.297514511,103.8365342,Mount Elizabeth Hospital,313@Somerset,SOMERSET MRT STATION,13081
372,CAVENAGH LODGE,1.3060744,103.8409939,Mount Elizabeth Hospital,The Centrepoint,SOMERSET MRT STATION,9038
373,THE LIGHT @ CAIRNHILL,1.3065945,103.8385915,Mount Elizabeth Hospital,The Paragon,NEWTON MRT STATION,9037
374,THE RISE @ OXLEY - RESIDENCES,1.297407,103.843198,Mount Elizabeth Hospital,Plaza Singapura,DHOBY GHAUT MRT STATION,8011
375,RIVERIA GARDENS,1.2973489,103.8346901,Mount Elizabeth Hospital,Cathay Cineleisure Orchard,SOMERSET MRT STATION,13089
376,URBANA,1.296923928,103.8377635,Mount Elizabeth Hospital,313@Somerset,SOMERSET MRT STATION,13081
377,THE VERV @ RV,1.296415,103.8347104,Mount Elizabeth Hospital,Great World City,SOMERSET MRT STATION,13089
378,THE LUMOS,1.2992233,103.8319283,Mount Elizabeth Hospital,Ngee Ann City,ORCHARD MRT STATION,13159
379,ONE OXLEY RISE,1.2991534,103.8418054,Mount Elizabeth Hospital,Orchard Plaza,SOMERSET MRT STATION,8111
380,LEONIE PARC VIEW,1.298958,103.8342271,Mount Elizabeth Hospital,Cathay Cineleisure Orchard,SOMERSET MRT STATION,9059
381,OXLEY GARDEN,1.2978794,103.8422295,Mount Elizabeth Hospital,Orchard Plaza,SOMERSET MRT STATION,8011
382,SOPHIA RESIDENCE,1.300525,103.8488061,Raffles Hospital,Sunshine Plaza,BENCOOLEN MRT STATION,7011
383,THE PATERSON EDGE,1.3024407,103.8295066,Mount Elizabeth Hospital,Wheelock Place,ORCHARD MRT STATION,13191
384,NEW FUTURA,1.2985307,103.8340078,Mount Elizabeth Hospital,Cathay Cineleisure Orchard,SOMERSET MRT STATION,13071
385,LIV ON SOPHIA,1.3011037,103.8480048,Raffles Hospital,Sunshine Plaza,DHOBY GHAUT MRT STATION,7011
386,ESTILO,1.302602,103.8473,KK Women's and Children's Hospital,Plaza Singapura,DHOBY GHAUT MRT STATION,7021
387,RIVERDALE RESIDENCE,1.2967125,103.8349426,Mount Elizabeth Hospital,Great World City,SOMERSET MRT STATION,13089
388,ELIZABETH TOWER,1.306265528,103.8363875,Mount Elizabeth Hospital,The Paragon,ORCHARD MRT STATION,9048
389,YONG AN PARK,1.2950212,103.8345931,Mount Elizabeth Hospital,Great World City,SOMERSET MRT STATION,13089
390,DEVONSHIRE RESIDENCES,1.2989615,103.8373393,Mount Elizabeth Hospital,313@Somerset,SOMERSET MRT STATION,9059
391,MACKENZIE 88,1.306307,103.8476108,KK Women's and Children's Hospital,Tekka Centre,LITTLE INDIA MRT STATION,40011
392,THE PEAK @ CAIRNHILL I,1.3081745,103.8379745,Mount Elizabeth Hospital,Far East Plaza,NEWTON MRT STATION,40179
393,PARC MACKENZIE,1.306207,103.8479082,KK Women's and Children's Hospital,Tekka Centre,LITTLE INDIA MRT STATION,40011
394,NOMU,1.2998036,103.847008,Raffles Hospital,Plaza Singapura,DHOBY GHAUT MRT STATION,8058
395,THE MARQ ON PATERSON HILL,1.3006874,103.8288453,Mount Elizabeth Hospital,Wheelock Place,ORCHARD MRT STATION,13169
396,ACORN,1.293803,103.841579,Mount Elizabeth Hospital,Orchard Central,FORT CANNING MRT STATION,13101
397,1919,1.302806,103.8466,KK Women's and Children's Hospital,Plaza Singapura,DHOBY GHAUT MRT STATION,7021
398,LUCKY PLAZA APARTMENTS,1.3045795,103.8340621,Mount Elizabeth Hospital,Lucky Plaza,ORCHARD MRT STATION,9048
399,SCOTTS 28,1.3095861,103.8352705,Mount Elizabeth Hospital,Far East Plaza,NEWTON MRT STATION,40171
400,VIVACE,1.292906,103.840701,Mount Elizabeth Hospital,Singapore Shopping Centre,FORT CANNING MRT STATION,13211
401,CLAYMORE PLAZA,1.3070143,103.8314018,Mount Elizabeth Hospital,Palais Renaissance,ORCHARD MRT STATION,9212
402,LEONIE TOWERS,1.2979698,103.8315827,Mount Elizabeth Hospital,Great World City,ORCHARD MRT STATION,13159
403,THE SUITES AT CENTRAL,1.298503,103.8366,Mount Elizabeth Hospital,Cathay Cineleisure Orchard,SOMERSET MRT STATION,9059
404,SKYPARK,1.29732698,103.8357949,Mount Elizabeth Hospital,Cathay Cineleisure Orchard,SOMERSET MRT STATION,13081
405,TIARA,1.2949888,103.8312104,Mount Elizabeth Hospital,Great World City,ORCHARD MRT STATION,13139
406,ROBERTSON 100,1.2914059,103.8377933,Singapore General Hospital,Great World City,FORT CANNING MRT STATION,6159
407,LLOYD COURT,1.2974643,103.8394444,Mount Elizabeth Hospital,Orchard Central,SOMERSET MRT STATION,13091
408,CAVENAGH COURT,1.3099235,103.8431818,KK Women's and Children's Hospital,United Square,NEWTON MRT STATION,40021
409,LE WILKIE,1.3028313,103.8478298,KK Women's and Children's Hospital,Plaza Singapura,LITTLE INDIA MRT STATION,7021
410,HIGH POINT,1.333768617,103.892964,Parkway East Hospital,Singpost Centre,TAI SENG MRT STATION,71179
411,CASA NOVACREST,1.3092109,103.8380282,Mount Elizabeth Hospital,Far East Plaza,NEWTON MRT STATION,40179
412,STARLIGHT SUITES,1.2938906,103.8371508,Mount Elizabeth Hospital,Great World City,SOMERSET MRT STATION,13089
413,URBAN RESORT CONDOMINIUM,1.3041279,103.8377685,Mount Elizabeth Hospital,Knightsbridge,SOMERSET MRT STATION,9037
414,KILLINEY 118,1.2979864,103.8384048,Mount Elizabeth Hospital,313@Somerset,SOMERSET MRT STATION,13091
415,DEVONSHIRE 12,1.2980649,103.8379775,Mount Elizabeth Hospital,313@Somerset,SOMERSET MRT STATION,8121
416,CAIRNHILL CREST,1.305477,103.8384256,Mount Elizabeth Hospital,The Paragon,SOMERSET MRT STATION,9037
417,ONE DEVONSHIRE,1.2970632,103.8374719,Mount Elizabeth Hospital,313@Somerset,SOMERSET MRT STATION,13081
418,8 RODYK,1.2902204,103.8376575,Singapore General Hospital,Great World City,FORT CANNING MRT STATION,6159
419,WILKIE 48,1.3025029,103.8482892,KK Women's and Children's Hospital,Sunshine Plaza,BENCOOLEN MRT STATION,7021
420,PARC SOPHIA,1.3014772,103.847596,KK Women's and Children's Hospital,Plaza Singapura,DHOBY GHAUT MRT STATION,7011
421,CASA CAIRNHILL,1.3082371,103.8397179,Mount Elizabeth Hospital,The Paragon,NEWTON MRT STATION,40031
422,OXLEY MANSION,1.2986422,103.8410802,Mount Elizabeth Hospital,Orchard Plaza,SOMERSET MRT STATION,8111
423,THE CENTREPOINT,1.3016573,103.8397629,Mount Elizabeth Hospital,The Centrepoint,SOMERSET MRT STATION,9038
424,PATERSON LINC,1.3032819,103.8300802,Mount Elizabeth Hospital,Wheelock Place,ORCHARD MRT STATION,13191
425,SUITES @ CAIRNHILL,1.3098888,103.8362502,Mount Elizabeth Hospital,Far East Plaza,NEWTON MRT STATION,40171
426,THE PEAK @ CAIRNHILL II,1.3081745,103.8379745,Mount Elizabeth Hospital,Far East Plaza,NEWTON MRT STATION,40179
427,THE TATE RESIDENCES,1.3080964,103.8303685,Mount Elizabeth Hospital,Palais Renaissance,ORCHARD MRT STATION,9179
428,THE ABODE AT DEVONSHIRE,1.2977103,103.8377926,Mount Elizabeth Hospital,313@Somerset,SOMERSET MRT STATION,13081
429,WILKIE STUDIO,1.30347,103.8475341,KK Women's and Children's Hospital,Plaza Singapura,LITTLE INDIA MRT STATION,7021
430,CAVENAGH GARDENS,1.3055282,103.8410468,Mount Elizabeth Hospital,The Centrepoint,SOMERSET MRT STATION,9038
431,OXLEY RESIDENCE,1.2968333,103.8409574,Mount Elizabeth Hospital,Orchard Central,SOMERSET MRT STATION,13099
432,ALBA,1.307407,103.839701,Mount Elizabeth Hospital,The Paragon,NEWTON MRT STATION,40031
433,VIDA,1.308704,103.839099,Mount Elizabeth Hospital,Far East Plaza,NEWTON MRT STATION,40179
434,WILKIE REGENCY,1.3026302,103.8490638,KK Women's and Children's Hospital,Sunshine Plaza,ROCHOR MRT STATION,7021
435,MARTIN PLACE RESIDENCES,1.2940904,103.8381121,Mount Elizabeth Hospital,Great World City,SOMERSET MRT STATION,13091
436,RESIDENCES AT EMERALD HILL,1.3030712,103.8393188,Mount Elizabeth Hospital,Midpoint Orchard,SOMERSET MRT STATION,9038
437,WILKIE COURT,1.303244,103.8466512,KK Women's and Children's Hospital,Plaza Singapura,DHOBY GHAUT MRT STATION,7021
438,THE REGALIA,1.2952345,103.836797,Mount Elizabeth Hospital,Great World City,SOMERSET MRT STATION,13081
439,VALLEY HOUSE,1.296008,103.8382,Mount Elizabeth Hospital,Orchard Central,SOMERSET MRT STATION,13091
440,THE EDGE ON CAIRNHILL,1.3089072,103.8368689,Mount Elizabeth Hospital,Far East Plaza,NEWTON MRT STATION,40171
441,ROBERTSON EDGE,1.2931051,103.8404749,Mount Elizabeth Hospital,Orchard Central,FORT CANNING MRT STATION,13211
442,MACKENZIE REGENCY,1.30455,103.849633,KK Women's and Children's Hospital,Tekka Centre,LITTLE INDIA MRT STATION,7021
443,OXLEY EDGE,1.2956302,103.841475,Mount Elizabeth Hospital,Orchard Central,FORT CANNING MRT STATION,13101
444,PATERSON RESIDENCE,1.3000864,103.8300115,Mount Elizabeth Hospital,ION Orchard,ORCHARD MRT STATION,13169
445,THE CATHAY RESIDENCE,1.2995456,103.8477018,Raffles Hospital,Plaza Singapura,DHOBY GHAUT MRT STATION,8058
446,THE LUXE,1.299597,103.8471866,Raffles Hospital,Plaza Singapura,DHOBY GHAUT MRT STATION,8058
447,THE BOUTIQ,1.2965559,103.8384894,Mount Elizabeth Hospital,Orchard Central,SOMERSET MRT STATION,13091
448,EURO-ASIA COURT,1.2944127,103.8374224,Mount Elizabeth Hospital,Great World City,SOMERSET MRT STATION,13081
449,ST THOMAS COURT,1.29708218,103.8357882,Mount Elizabeth Hospital,Cathay Cineleisure Orchard,SOMERSET MRT STATION,13081
450,LLOYD MANSION,1.2969094,103.8402113,Mount Elizabeth Hospital,Orchard Central,SOMERSET MRT STATION,13099
451,NEWTON EDGE,1.312899,103.842024,KK Women's and Children's Hospital,United Square,NEWTON MRT STATION,40039
452,THE QUAYSIDE,1.2900297,103.8391632,Singapore General Hospital,People's Park Centre,FORT CANNING MRT STATION,6169
453,LIV ON WILKIE,1.3025195,103.8486772,KK Women's and Children's Hospital,Sunshine Plaza,ROCHOR MRT STATION,7021
454,MACKENZIE 138,1.3070669,103.8469915,KK Women's and Children's Hospital,Tekka Centre,LITTLE INDIA MRT STATION,40271
455,CAVENAGH FORTUNA,1.3071427,103.8412214,Mount Elizabeth Hospital,The Centrepoint,NEWTON MRT STATION,40021
456,WILMER HOUSE,1.2963783,103.8356762,Mount Elizabeth Hospital,Great World City,SOMERSET MRT STATION,13089
457,CENTENNIA SUITES,1.292822,103.8335334,Mount Elizabeth Hospital,Great World City,SOMERSET MRT STATION,13119
458,CAIRNHILL RESIDENCES,1.3079038,103.8391041,Mount Elizabeth Hospital,The Paragon,NEWTON MRT STATION,40179
459,RHAPSODY ON MOUNT ELIZABETH,1.3067896,103.836018,Mount Elizabeth Hospital,Far East Plaza,ORCHARD MRT STATION,9219
460,SOPHIA 98,1.3022708,103.8470916,KK Women's and Children's Hospital,Plaza Singapura,DHOBY GHAUT MRT STATION,7011
461,MARTIN NO 38,1.2922514,103.838031,Mount Elizabeth Hospital,Great World City,FORT CANNING MRT STATION,13211
462,SUITES @ SOPHIA,1.3023265,103.84656,KK Women's and Children's Hospital,Plaza Singapura,DHOBY GHAUT MRT STATION,8057
463,SKYLINE @ ORCHARD BOULEVARD,1.3031812,103.8295797,Mount Elizabeth Hospital,Wheelock Place,ORCHARD MRT STATION,13191
464,SOPHIA FLATS,1.3022112,103.848916,Raffles Hospital,Sunshine Plaza,BENCOOLEN MRT STATION,7021
465,ELIZABETH HEIGHTS,1.3075987,103.836724,Mount Elizabeth Hospital,Far East Plaza,NEWTON MRT STATION,40171
466,CAVENAGH HOUSE,1.3079768,103.8407621,Mount Elizabeth Hospital,The Paragon,NEWTON MRT STATION,40021
467,THE PATERSON,1.3002311,103.8306273,Mount Elizabeth Hospital,ION Orchard,ORCHARD MRT STATION,13199
468,LEONIE HILL RESIDENCES,1.2973376,103.8331687,Mount Elizabeth Hospital,Great World City,SOMERSET MRT STATION,13071
469,LANGSTON VILLE,1.2948985,103.8389432,Mount Elizabeth Hospital,Orchard Central,SOMERSET MRT STATION,13099
470,CAIRNHILL ASTORIA,1.3069985,103.839562,Mount Elizabeth Hospital,The Paragon,NEWTON MRT STATION,40031
471,ORCHARD VIEW,1.317591,103.825368,Gleneagles Hospital,Palais Renaissance,STEVENS MRT STATION,40219
472,111 EMERALD HILL,1.305096,103.8390615,Mount Elizabeth Hospital,Midpoint Orchard,SOMERSET MRT STATION,9037
473,WHARTON VALE,1.3019433,103.8482063,KK Women's and Children's Hospital,Sunshine Plaza,BENCOOLEN MRT STATION,7011
474,MOUNT SOPHIA SUITES,1.3020815,103.8468403,KK Women's and Children's Hospital,Plaza Singapura,DHOBY GHAUT MRT STATION,8058
475,THE MKZ,1.3065285,103.8465459,KK Women's and Children's Hospital,Tekka Centre,LITTLE INDIA MRT STATION,40271
476,THE RITZ-CARLTON RESIDENCES SINGAPORE CAIRNHILL,1.3079884,103.8362855,Mount Elizabeth Hospital,Far East Plaza,NEWTON MRT STATION,40171
477,WILKIE VALE,1.3026036,103.8481763,KK Women's and Children's Hospital,Sunshine Plaza,BENCOOLEN MRT STATION,7021
478,EBER GARDENS,1.298826,103.8403234,Mount Elizabeth Hospital,Orchard Central,SOMERSET MRT STATION,8111
479,LLOYD SIXTYFIVE,1.2973113,103.8389791,Mount Elizabeth Hospital,Orchard Central,SOMERSET MRT STATION,13091
480,STARFIRE @ SOPHIA,1.3018656,103.8475993,KK Women's and Children's Hospital,Plaza Singapura,DHOBY GHAUT MRT STATION,7011
481,RESIDENCES AT 338A,1.2964022,103.8380312,Mount Elizabeth Hospital,313@Somerset,SOMERSET MRT STATION,13091
482,SCOTTS HIGHPARK,1.3120432,103.8369309,Mount Elizabeth Hospital,Far East Plaza,NEWTON MRT STATION,40179
483,VILLE ROYALE,1.2960116,103.8413088,Mount Elizabeth Hospital,Orchard Central,FORT CANNING MRT STATION,13099
484,PARC CENTENNIAL,1.3131577,103.8437696,KK Women's and Children's Hospital,United Square,NEWTON MRT STATION,40029
485,HULLET RISE,1.3031621,103.8383345,Mount Elizabeth Hospital,Midpoint Orchard,SOMERSET MRT STATION,9037
486,RIVER VALLEY COURT,1.2958881,103.8378316,Mount Elizabeth Hospital,313@Somerset,SOMERSET MRT STATION,13091
487,SOPHIA LODGE,1.302420358,103.8491789,Raffles Hospital,Sunshine Plaza,ROCHOR MRT STATION,7021
488,NIVEN LOFT,1.302361,103.84908,Raffles Hospital,Sunshine Plaza,ROCHOR MRT STATION,7021
489,SAPPHIRE 99,1.3022405,103.8466332,KK Women's and Children's Hospital,Plaza Singapura,DHOBY GHAUT MRT STATION,8057
490,HOLLYWOOD APARTMENTS,1.296271,103.8430398,Mount Elizabeth Hospital,Plaza Singapura,DHOBY GHAUT MRT STATION,8011
491,TAN CHIN TUAN MANSION,1.3052527,103.837427,Mount Elizabeth Hospital,The Paragon,SOMERSET MRT STATION,9037
492,RESIDENCES @ KILLINEY,1.2969022,103.8380167,Mount Elizabeth Hospital,313@Somerset,SOMERSET MRT STATION,13091
493,TOP TEN,1.304855,103.83967,Mount Elizabeth Hospital,Midpoint Orchard,SOMERSET MRT STATION,9038
494,EMERALD HILL CONSERVATION AREA,1.3019155,103.8392077,Mount Elizabeth Hospital,Orchard Gateway,SOMERSET MRT STATION,9038
495,TWENTYONE ANGULLIA PARK,1.3038017,103.8298516,Mount Elizabeth Hospital,Wheelock Place,ORCHARD MRT STATION,9111
496,ST THOMAS VILLE,1.2975867,103.8360041,Mount Elizabeth Hospital,Cathay Cineleisure Orchard,SOMERSET MRT STATION,13081
497,ASPEN LINQ,1.2952935,103.8398323,Mount Elizabeth Hospital,Orchard Central,SOMERSET MRT STATION,13099
498,ORCHARD COURT,1.298575,103.8415067,Mount Elizabeth Hospital,Orchard Plaza,SOMERSET MRT STATION,8111
499,WILKIE 87,1.3031893,103.8469717,KK Women's and Children's Hospital,Plaza Singapura,LITTLE INDIA MRT STATION,7021
500,SOPHIA CREST,1.30157,103.84819,KK Women's and Children's Hospital,Sunshine Plaza,BENCOOLEN MRT STATION,7011
501,HOCK MANSION,1.3023827,103.8485694,KK Women's and Children's Hospital,Sunshine Plaza,BENCOOLEN MRT STATION,7021
502,RIVA LODGE,1.2966435,103.8321898,Mount Elizabeth Hospital,Great World City,ORCHARD MRT STATION,13071
503,JIA,1.302342,103.84756,KK Women's and Children's Hospital,Plaza Singapura,DHOBY GHAUT MRT STATION,7021
504,FRASER RESIDENCE ORCHARD SINGAPORE,1.3013843,103.8298277,Mount Elizabeth Hospital,ION Orchard,ORCHARD MRT STATION,13199
505,DELFI ORCHARD,1.3071783,103.8285872,Mount Elizabeth Hospital,Palais Renaissance,ORCHARD MRT STATION,9169
506,283 STUDIO,1.2957811,103.8397966,Mount Elizabeth Hospital,Orchard Central,SOMERSET MRT STATION,13099
507,TEOCHEW SAIHO RESIDENCE,1.295602,103.839801,Mount Elizabeth Hospital,Orchard Central,SOMERSET MRT STATION,13099
508,TRENDALE TOWER,1.309621,103.8359488,Mount Elizabeth Hospital,Far East Plaza,NEWTON MRT STATION,40171
509,CITYVALE,1.3019717,103.8480874,KK Women's and Children's Hospital,Sunshine Plaza,DHOBY GHAUT MRT STATION,7011
510,PEACE CENTRE / MANSIONS,1.3012709,103.8494332,Raffles Hospital,Sunshine Plaza,BENCOOLEN MRT STATION,7011
511,WILKIE APARTMENTS,1.302247,103.8478711,KK Women's and Children's Hospital,Plaza Singapura,DHOBY GHAUT MRT STATION,7011
512,TOWNHOUSE APARTMENTS,1.3092361,103.8425657,KK Women's and Children's Hospital,Tekka Centre,NEWTON MRT STATION,40021
513,TWO8ONE STUDIO,1.295648,103.839869,Mount Elizabeth Hospital,Orchard Central,SOMERSET MRT STATION,13099
514,PINE RESIDENCES,1.2954006,103.8399632,Mount Elizabeth Hospital,Orchard Central,SOMERSET MRT STATION,13099
515,VALLEY LODGE,1.294706,103.841401,Mount Elizabeth Hospital,Orchard Central,FORT CANNING MRT STATION,13101
516,GAMBIER COURT,1.2930328,103.8397551,Mount Elizabeth Hospital,Great World City,FORT CANNING MRT STATION,13211
517,THE PROMONT,1.3076552,103.8378383,Mount Elizabeth Hospital,Far East Plaza,NEWTON MRT STATION,40179
518,EMERALD APARTMENTS,1.305093,103.839701,Mount Elizabeth Hospital,Midpoint Orchard,SOMERSET MRT STATION,9038
519,NUTMEG COURT,1.3049496,103.8341612,Mount Elizabeth Hospital,Lucky Plaza,ORCHARD MRT STATION,9048
520,NAGARATHAR BUILDING,1.293914,103.842864,Mount Elizabeth Hospital,Plaza Singapura,FORT CANNING MRT STATION,13109
521,OAKWOOD STUDIOS SINGAPORE,1.3069712,103.8361804,Mount Elizabeth Hospital,Far East Plaza,ORCHARD MRT STATION,9219
522,ORCHARD TOWERS,1.3072293,103.8293323,Mount Elizabeth Hospital,Palais Renaissance,ORCHARD MRT STATION,9169
523,D'LEEDON,1.3145179,103.8022928,Concord International Hospital,The Star Vista,FARRER ROAD MRT STATION,11099
524,WILLYN VILLE,1.3119567,103.796528,Concord International Hospital,The Star Vista,HOLLAND VILLAGE MRT STATION,11419
525,NASSIM REGENCY,1.3118978,103.8196052,Gleneagles Hospital,Tanglin Mall,STEVENS MRT STATION,13019
526,GALLOP GABLES,1.3155602,103.8076756,Concord International Hospital,Tanglin Mall,FARRER ROAD MRT STATION,11101
527,CHARLESTON,1.295397133,103.8282423,Mount Elizabeth Hospital,Great World City,TIONG BAHRU MRT STATION,13062
528,PALM SPRING,1.332753857,103.8318808,Mount Alvernia Hospital,Balestier Hill Shopping Centre,BUKIT BROWN MRT STATION,51041
529,THE ELEMENT @ STEVENS,1.3179236,103.8259042,Gleneagles Hospital,Palais Renaissance,STEVENS MRT STATION,40219
530,MON JERVOIS,1.2939942,103.8222878,Gleneagles Hospital,Tiong Bahru Plaza,REDHILL MRT STATION,10269
531,JERVOIS LODGE,1.293887,103.8236307,Gleneagles Hospital,Tiong Bahru Plaza,REDHILL MRT STATION,13051
532,THE FERNHILL,1.3144192,103.8260645,Gleneagles Hospital,Palais Renaissance,STEVENS MRT STATION,40209
533,SOMMERVILLE PARK,1.3125978,103.8060041,Gleneagles Hospital,The Star Vista,FARRER ROAD MRT STATION,11099
534,VALLEY PARK,1.307565007,103.8289054,Mount Elizabeth Hospital,Palais Renaissance,ORCHARD MRT STATION,9169
535,SPRING GROVE,1.298155233,103.8276847,Mount Elizabeth Hospital,Great World City,ORCHARD MRT STATION,13169
536,SARKIES GARDENS,1.3136517,103.8363653,Mount Elizabeth Hospital,Far East Plaza,NEWTON MRT STATION,40041
537,SARKIES GREEN,1.3138479,103.8359884,Mount Elizabeth Hospital,Far East Plaza,NEWTON MRT STATION,40041
538,REGENCY PARK,1.296802,103.825397,Gleneagles Hospital,Great World City,ORCHARD MRT STATION,13171
539,BALMORAL RESIDENCES,1.315853,103.8353704,Mount Elizabeth Hospital,United Square,NEWTON MRT STATION,40051
540,CYAN,1.318303,103.830401,Thomson Medical Centre,Far East Plaza,STEVENS MRT STATION,40071
541,TANGLIN PARK,1.2996336,103.8159352,Gleneagles Hospital,Tanglin Mall,REDHILL MRT STATION,13031
542,CLIVEDEN AT GRANGE,1.2992831,103.826623,Gleneagles Hospital,Tanglin Mall,ORCHARD MRT STATION,13179
543,VILLA DELLE ROSE,1.310881,103.8074048,Gleneagles Hospital,Tanglin Mall,FARRER ROAD MRT STATION,11219
544,HOLLAND PEAK,1.3086804,103.8011582,Gleneagles Hospital,The Star Vista,HOLLAND VILLAGE MRT STATION,11081
545,LUSH ON HOLLAND HILL,1.3088546,103.800354,Gleneagles Hospital,The Star Vista,HOLLAND VILLAGE MRT STATION,11081
546,120 GRANGE,1.3000017,103.82554,Gleneagles Hospital,Tanglin Mall,ORCHARD MRT STATION,13179
547,ONE BALMORAL,1.3135933,103.8299206,Mount Elizabeth Hospital,Palais Renaissance,STEVENS MRT STATION,40191
548,3 CUSCADEN,1.3049629,103.8258433,Gleneagles Hospital,Tanglin Mall,ORCHARD MRT STATION,9191
549,DUCHESS CREST,1.3246173,103.8038022,Concord International Hospital,The Star Vista,TAN KAH KEE MRT STATION,41061
550,FOUR SEASONS PARK,1.3035767,103.8279255,Mount Elizabeth Hospital,Wheelock Place,ORCHARD MRT STATION,9121
551,THE MERASAGA,1.3117133,103.7975001,Concord International Hospital,The Star Vista,HOLLAND VILLAGE MRT STATION,11419
552,HANA,1.3041488,103.8254608,Gleneagles Hospital,Tanglin Mall,ORCHARD MRT STATION,9191
553,LOFT @ NATHAN,1.2943762,103.8274359,Mount Elizabeth Hospital,Great World City,TIONG BAHRU MRT STATION,13062
554,GRAMERCY PARK,1.298556459,103.826624,Mount Elizabeth Hospital,Tanglin Mall,ORCHARD MRT STATION,13171
555,PARKSUITES,1.316929,103.782979,National University Hospital,The Star Vista,DOVER MRT STATION,12149
556,VIZ AT HOLLAND,1.3083699,103.8018683,Gleneagles Hospital,The Star Vista,HOLLAND VILLAGE MRT STATION,11081
557,HOLLAND HILL PARK,1.3098529,103.8024249,Gleneagles Hospital,The Star Vista,HOLLAND VILLAGE MRT STATION,11089
558,ROYALGREEN,1.3316431,103.7941736,Concord International Hospital,Bukit Timah Plaza,SIXTH AVENUE MRT STATION,42011
559,MELROSE PARK,1.293791981,103.8304276,Mount Elizabeth Hospital,Great World City,TIONG BAHRU MRT STATION,13121
560,ST REGIS RESIDENCES SINGAPORE,1.3054241,103.8266138,Gleneagles Hospital,Tanglin Mall,ORCHARD MRT STATION,9159
561,ROBIN REGALIA,1.3169007,103.8282339,Gleneagles Hospital,Palais Renaissance,STEVENS MRT STATION,40219
562,HOLLAND GEMS,1.310173,103.8071105,Gleneagles Hospital,Tanglin Mall,FARRER ROAD MRT STATION,11219
563,FIFTH AVENUE CONDOMINIUM,1.330196,103.795899,Concord International Hospital,Bukit Timah Plaza,SIXTH AVENUE MRT STATION,42129
564,SEVEN HOLT ROAD,1.2936713,103.8259127,Mount Elizabeth Hospital,Great World City,TIONG BAHRU MRT STATION,13051
565,RV RESIDENCES,1.2940838,103.8280329,Mount Elizabeth Hospital,Great World City,TIONG BAHRU MRT STATION,13062
566,BISHOPSGATE RESIDENCES,1.2989205,103.8243664,Gleneagles Hospital,Tanglin Mall,ORCHARD MRT STATION,13181
567,ZENITH,1.292599,103.830597,Mount Elizabeth Hospital,Great World City,TIONG BAHRU MRT STATION,13121
568,THE SIXTH AVENUE RESIDENCES,1.3271415,103.7932781,Concord International Hospital,Bukit Timah Plaza,SIXTH AVENUE MRT STATION,11349
569,BOTANIC GARDENS VIEW,1.3087134,103.8190799,Gleneagles Hospital,Tanglin Mall,STEVENS MRT STATION,13019
570,ARDMORE RESIDENCE,1.3101,103.8284314,Mount Elizabeth Hospital,Palais Renaissance,ORCHARD MRT STATION,9169
571,ST MARTIN RESIDENCE,1.3064237,103.824295,Gleneagles Hospital,Tanglin Mall,ORCHARD MRT STATION,9159
572,THE CORNWALL,1.312674786,103.8000705,Concord International Hospital,The Star Vista,HOLLAND VILLAGE MRT STATION,11231
573,THE DRAYCOTT,1.3117312,103.8311448,Mount Elizabeth Hospital,Far East Plaza,NEWTON MRT STATION,40199
574,ORANGE GROVE RESIDENCES,1.3131375,103.8253713,Gleneagles Hospital,Palais Renaissance,STEVENS MRT STATION,40201
575,ARDMORE PARK,1.3094803,103.828462,Mount Elizabeth Hospital,Palais Renaissance,ORCHARD MRT STATION,9169
576,SIXTH AVENUE VILLE,1.3294556,103.7949791,Concord International Hospital,Bukit Timah Plaza,SIXTH AVENUE MRT STATION,42129
577,PINETREE CONDOMINIUM,1.3149443,103.8291228,Mount Elizabeth Hospital,Palais Renaissance,STEVENS MRT STATION,40209
578,THE FORD @ HOLLAND,1.3136659,103.7937884,Concord International Hospital,The Star Vista,HOLLAND VILLAGE MRT STATION,11269
579,THE LEVELZ,1.3135154,103.8047387,Concord International Hospital,The Star Vista,FARRER ROAD MRT STATION,11099
580,THE TESSARINA,1.3325758,103.7897426,Concord International Hospital,Bukit Timah Plaza,KING ALBERT PARK MRT STATION,42031
581,LIBERTE,1.313808,103.836702,Mount Elizabeth Hospital,Far East Plaza,NEWTON MRT STATION,40041
582,MONTVIEW,1.3168246,103.7770873,National University Hospital,Grantral Mall,DOVER MRT STATION,12179
583,GOODWOOD RESIDENCE,1.3149503,103.8357779,Mount Elizabeth Hospital,Far East Plaza,NEWTON MRT STATION,40051
584,BOTANIC LODGE,1.3112426,103.818016,Gleneagles Hospital,Tanglin Mall,BOTANIC GARDENS MRT STATION,13019
585,FOURTH AVENUE RESIDENCES,1.3290351,103.7971629,Concord International Hospital,Bukit Timah Plaza,SIXTH AVENUE MRT STATION,41081
586,ST MARTIN'S,1.30606011,103.8244852,Gleneagles Hospital,Tanglin Mall,ORCHARD MRT STATION,9159
587,THE ASTON,1.2959504,103.8298481,Mount Elizabeth Hospital,Great World City,ORCHARD MRT STATION,13063
588,ALLSWORTH PARK,1.3198635,103.7811326,National University Hospital,The Star Vista,DOVER MRT STATION,12151
589,NATHAN RESIDENCES,1.2948513,103.8271899,Mount Elizabeth Hospital,Great World City,TIONG BAHRU MRT STATION,13062
590,TANGLIN REGENCY,1.2919195,103.8162764,Gleneagles Hospital,Anchorpoint,REDHILL MRT STATION,10279
591,NOUVEL 18,1.3108751,103.8283575,Mount Elizabeth Hospital,Palais Renaissance,ORCHARD MRT STATION,40191
592,D' DALVEY,1.3209092,103.821647,Concord International Hospital,Tanglin Mall,STEVENS MRT STATION,40091
593,WATERFALL GARDENS,1.3120628,103.8047067,Gleneagles Hospital,The Star Vista,FARRER ROAD MRT STATION,11091
594,ROBIN RESIDENCES,1.3191539,103.8280945,Gleneagles Hospital,Palais Renaissance,STEVENS MRT STATION,40071
595,BALMORAL HILLS,1.316282,103.8279524,Gleneagles Hospital,Palais Renaissance,STEVENS MRT STATION,40219
596,BOTANIC GARDENS MANSION,1.3082377,103.8194845,Gleneagles Hospital,Tanglin Mall,ORCHARD MRT STATION,13019
597,GARDENVILLE,1.3124782,103.8274348,Gleneagles Hospital,Palais Renaissance,STEVENS MRT STATION,40201
598,THE LOFT,1.306856,103.82224,Gleneagles Hospital,Tanglin Mall,ORCHARD MRT STATION,9149
599,PINEWOOD GARDENS,1.316021323,103.8296684,Mount Elizabeth Hospital,Palais Renaissance,STEVENS MRT STATION,40209
600,VILLA AZURA,1.3321655,103.7930017,Concord International Hospital,Bukit Timah Plaza,SIXTH AVENUE MRT STATION,42021
601,PARVIS,1.3103151,103.8012733,Gleneagles Hospital,The Star Vista,HOLLAND VILLAGE MRT STATION,11231
602,CUSCADEN RESIDENCES,1.3047839,103.8266156,Gleneagles Hospital,Tanglin Mall,ORCHARD MRT STATION,9121
603,FERNHILL COURT,1.3140616,103.8232574,Gleneagles Hospital,Tanglin Mall,STEVENS MRT STATION,40211
604,THE MONTANA,1.2961849,103.8289865,Mount Elizabeth Hospital,Great World City,ORCHARD MRT STATION,13063
605,ONE DRAYCOTT,1.310111,103.830757,Mount Elizabeth Hospital,Palais Renaissance,ORCHARD MRT STATION,40191
606,THREE BALMORAL,1.3138543,103.8305777,Mount Elizabeth Hospital,Palais Renaissance,NEWTON MRT STATION,40191
607,QUEENSBERRY LODGE,1.295081,103.8274386,Mount Elizabeth Hospital,Great World City,TIONG BAHRU MRT STATION,13062
608,THE HORIZON,1.294504,103.826798,Mount Elizabeth Hospital,Great World City,TIONG BAHRU MRT STATION,13059
609,THE HOLLAND COLLECTION,1.3089242,103.8079584,Gleneagles Hospital,Tanglin Mall,FARRER ROAD MRT STATION,11219
610,SHANGRI-LA RESIDENCES,1.3096915,103.826668,Gleneagles Hospital,Palais Renaissance,ORCHARD MRT STATION,9169
611,KELLOCK LODGE,1.2949435,103.8298424,Mount Elizabeth Hospital,Great World City,TIONG BAHRU MRT STATION,13063
612,MUTIARA CREST,1.2958434,103.8292635,Mount Elizabeth Hospital,Great World City,ORCHARD MRT STATION,13063
613,BALMORAL CREST,1.3162999,103.8344533,Mount Elizabeth Hospital,Far East Plaza,NEWTON MRT STATION,40051
614,THE HYDE,1.314623257,103.8309209,Mount Elizabeth Hospital,Far East Plaza,STEVENS MRT STATION,40191
615,PETIT JERVOIS,1.2932844,103.8232736,Gleneagles Hospital,Tiong Bahru Plaza,REDHILL MRT STATION,10249
616,SHANGHAI ONE,1.2947162,103.827812,Mount Elizabeth Hospital,Great World City,TIONG BAHRU MRT STATION,13062
617,BALMORAL PLACE,1.3166383,103.8348236,Thomson Medical Centre,United Square,NEWTON MRT STATION,40051
618,THE TRIZON,1.3163368,103.7780615,National University Hospital,Grantral Mall,DOVER MRT STATION,12199
619,THE GRANGE,1.301054,103.82448,Gleneagles Hospital,Tanglin Mall,ORCHARD MRT STATION,13189
620,ASTRID MEADOWS,1.3193291,103.7946171,Concord International Hospital,The Star Vista,HOLLAND VILLAGE MRT STATION,11329
621,SLOANE RESIDENCES,1.315693,103.832216,Mount Elizabeth Hospital,Far East Plaza,NEWTON MRT STATION,40111
622,BELMOND GREEN,1.3153274,103.8317202,Mount Elizabeth Hospital,Far East Plaza,NEWTON MRT STATION,40199
623,THE MERCURY,1.296097,103.827204,Mount Elizabeth Hospital,Great World City,ORCHARD MRT STATION,13062
624,THE TRESOR,1.3238502,103.806987,Concord International Hospital,The Star Vista,TAN KAH KEE MRT STATION,41051
625,NATHAN PLACE,1.295332,103.826254,Mount Elizabeth Hospital,Great World City,TIONG BAHRU MRT STATION,13051
626,GOODWOOD GARDENS,1.314692,103.8340971,Mount Elizabeth Hospital,Far East Plaza,NEWTON MRT STATION,40051
627,SAGE,1.3073,103.8244,Gleneagles Hospital,Tanglin Mall,ORCHARD MRT STATION,9159
628,GALLOP GREEN,1.3157275,103.8081677,Concord International Hospital,Tanglin Mall,FARRER ROAD MRT STATION,11119
629,ORION,1.308601,103.827616,Gleneagles Hospital,Palais Renaissance,ORCHARD MRT STATION,9169
630,DORMER PARK,1.2946071,103.8216286,Gleneagles Hospital,Tiong Bahru Plaza,REDHILL MRT STATION,10269
631,RIDGEWOOD,1.317171787,103.7801436,National University Hospital,The Star Vista,DOVER MRT STATION,12211
632,THE PRINCETON,1.3166639,103.8327272,Mount Elizabeth Hospital,Far East Plaza,NEWTON MRT STATION,40111
633,SPANISH VILLAGE,1.3146386,103.8057072,Concord International Hospital,The Star Vista,FARRER ROAD MRT STATION,11109
634,BOULEVARD 88,1.3045792,103.827242,Gleneagles Hospital,Palais Renaissance,ORCHARD MRT STATION,9121
635,ARDMORE THREE,1.3082244,103.8285879,Mount Elizabeth Hospital,Palais Renaissance,ORCHARD MRT STATION,9169
636,THE COTERIE @ HOLLAND,1.3109505,103.804648,Gleneagles Hospital,The Star Vista,FARRER ROAD MRT STATION,11229
637,EWE BOON REGENT,1.316514,103.8303997,Mount Elizabeth Hospital,Far East Plaza,STEVENS MRT STATION,40111
638,VOLARI,1.3150461,103.8329887,Mount Elizabeth Hospital,Far East Plaza,NEWTON MRT STATION,40199
639,JUNIPER HILL,1.3166391,103.8298825,Mount Elizabeth Hospital,Palais Renaissance,STEVENS MRT STATION,40071
640,GRANGE RESIDENCES,1.3039086,103.8227638,Gleneagles Hospital,Tanglin Mall,ORCHARD MRT STATION,9131
641,ONE JERVOIS,1.2927883,103.8248622,Gleneagles Hospital,Tiong Bahru Plaza,TIONG BAHRU MRT STATION,13051
642,CHELSEA GARDENS,1.313196,103.8274983,Gleneagles Hospital,Palais Renaissance,STEVENS MRT STATION,40201
643,THE TOMLINSON,1.3043662,103.8259196,Gleneagles Hospital,Tanglin Mall,ORCHARD MRT STATION,9191
644,3 ORCHARD BY-THE-PARK,1.3034414,103.8246733,Gleneagles Hospital,Tanglin Mall,ORCHARD MRT STATION,9139
645,KUM HING COURT,1.302857,103.8260343,Gleneagles Hospital,Tanglin Mall,ORCHARD MRT STATION,9121
646,THE EQUATORIAL,1.3201152,103.8250333,Concord International Hospital,Palais Renaissance,STEVENS MRT STATION,40229
647,NASSIM MANSION,1.309514,103.819528,Gleneagles Hospital,Tanglin Mall,STEVENS MRT STATION,13019
648,DRAYCOTT EIGHT,1.3109218,103.832083,Mount Elizabeth Hospital,Far East Plaza,NEWTON MRT STATION,40199
649,THE ENCLAVE . HOLLAND,1.3121012,103.7990815,Concord International Hospital,The Star Vista,HOLLAND VILLAGE MRT STATION,11231
650,GRANGE 70,1.2992099,103.8290501,Mount Elizabeth Hospital,ION Orchard,ORCHARD MRT STATION,13169
651,NASSIM PARK RESIDENCES,1.3078355,103.8235168,Gleneagles Hospital,Tanglin Mall,ORCHARD MRT STATION,9159
652,DUCHESS RESIDENCES,1.3241419,103.8017416,Concord International Hospital,The Star Vista,TAN KAH KEE MRT STATION,41061
653,HOLLAND RESIDENCES,1.3108932,103.7991772,Gleneagles Hospital,The Star Vista,HOLLAND VILLAGE MRT STATION,11231
654,DUKES RESIDENCE,1.3215106,103.8113969,Concord International Hospital,Tanglin Mall,BOTANIC GARDENS MRT STATION,41111
655,ONE TREE HILL RESIDENCE,1.3008086,103.8248349,Gleneagles Hospital,Tanglin Mall,ORCHARD MRT STATION,13189
656,LOFT@HOLLAND,1.3124374,103.7972507,Concord International Hospital,The Star Vista,HOLLAND VILLAGE MRT STATION,11419
657,THE SIENA,1.3209434,103.8116227,Concord International Hospital,Tanglin Mall,BOTANIC GARDENS MRT STATION,41111
658,RV SUITES,1.2956195,103.8294316,Mount Elizabeth Hospital,Great World City,ORCHARD MRT STATION,13063
659,DLV.,1.315487,103.824971,Gleneagles Hospital,Palais Renaissance,STEVENS MRT STATION,40211
660,MADISON RESIDENCES,1.3187907,103.8300676,Thomson Medical Centre,Far East Plaza,STEVENS MRT STATION,40071
661,WARNER COURT,1.3099777,103.7957017,National University Hospital,The Star Vista,HOLLAND VILLAGE MRT STATION,11401
662,ROBIN SUITES,1.3177386,103.8286453,Gleneagles Hospital,Palais Renaissance,STEVENS MRT STATION,40071
663,SHEARES VILLE,1.2936465,103.8253121,Gleneagles Hospital,Great World City,TIONG BAHRU MRT STATION,13051
664,POLLEN & BLEU,1.3135858,103.8067378,Gleneagles Hospital,Tanglin Mall,FARRER ROAD MRT STATION,11109
665,BALMORAL HEIGHTS,1.315059,103.8347299,Mount Elizabeth Hospital,Far East Plaza,NEWTON MRT STATION,40051
666,THE MARBELLA,1.314662,103.7783824,National University Hospital,The Star Vista,DOVER MRT STATION,12199
667,QUINTERRA,1.3186781,103.7806116,National University Hospital,The Star Vista,DOVER MRT STATION,12151
668,STELLAR RV,1.2951449,103.8286763,Mount Elizabeth Hospital,Great World City,TIONG BAHRU MRT STATION,13069
669,HOLLAND 100,1.3117383,103.8020213,Gleneagles Hospital,The Star Vista,HOLLAND VILLAGE MRT STATION,11239
670,TANGLIN HILL CONDOMINIUM,1.3017079,103.8162015,Gleneagles Hospital,Tanglin Mall,REDHILL MRT STATION,13039
671,PINE SPRINGS,1.315141679,103.8311085,Mount Elizabeth Hospital,Far East Plaza,STEVENS MRT STATION,40191
672,BEVERLY HILL,1.298959859,103.8255957,Gleneagles Hospital,Tanglin Mall,ORCHARD MRT STATION,13171
673,SUI GENERIS,1.3161159,103.8346766,Mount Elizabeth Hospital,Far East Plaza,NEWTON MRT STATION,40051
674,THE ARC AT DRAYCOTT,1.3094023,103.8310659,Mount Elizabeth Hospital,Palais Renaissance,ORCHARD MRT STATION,9213
675,HERITAGE APARTMENTS,1.308661,103.82908,Mount Elizabeth Hospital,Palais Renaissance,ORCHARD MRT STATION,9169
676,MILL POINT,1.2929174,103.8302916,Mount Elizabeth Hospital,Great World City,TIONG BAHRU MRT STATION,13121
677,CLUNY PARK RESIDENCE,1.3220121,103.8139211,Concord International Hospital,Tanglin Mall,BOTANIC GARDENS MRT STATION,41021
678,VENTUNO BALMORAL,1.3160829,103.8329347,Mount Elizabeth Hospital,Far East Plaza,NEWTON MRT STATION,40111
679,NATHAN SUITES,1.294954,103.826999,Mount Elizabeth Hospital,Great World City,TIONG BAHRU MRT STATION,13062
680,WOOLLERTON PARK,1.3174695,103.8091216,Concord International Hospital,Tanglin Mall,FARRER ROAD MRT STATION,11119
681,ONE CHATSWORTH,1.2989969,103.8248279,Gleneagles Hospital,Tanglin Mall,ORCHARD MRT STATION,13181
682,JERVOIS PRIVE,1.2950861,103.8183032,Gleneagles Hospital,Tanglin Mall,REDHILL MRT STATION,10321
683,SIGNATURE AT LEWIS,1.3209194,103.8231292,Concord International Hospital,Palais Renaissance,STEVENS MRT STATION,40091
684,RV EDGE,1.2948711,103.8280856,Mount Elizabeth Hospital,Great World City,TIONG BAHRU MRT STATION,13062
685,ORCHARD BEL AIR,1.302344,103.8248975,Gleneagles Hospital,Tanglin Mall,ORCHARD MRT STATION,13189
686,PARC STEVENS,1.3170213,103.827559,Gleneagles Hospital,Palais Renaissance,STEVENS MRT STATION,40219
687,CORONA VILLE,1.32256,103.7946623,Concord International Hospital,The Star Vista,SIXTH AVENUE MRT STATION,11339
688,SUTTON PLACE,1.313571553,103.8059429,Gleneagles Hospital,The Star Vista,FARRER ROAD MRT STATION,11099
689,PARKVIEW ECLAT,1.3007114,103.8242116,Gleneagles Hospital,Tanglin Mall,ORCHARD MRT STATION,13189
690,LEEDON RESIDENCE,1.3145179,103.8022928,Concord International Hospital,The Star Vista,FARRER ROAD MRT STATION,11099
691,LATITUDE,1.296003,103.828599,Mount Elizabeth Hospital,Great World City,ORCHARD MRT STATION,13069
692,THE SERENADE @ HOLLAND,1.3184188,103.780112,National University Hospital,The Star Vista,DOVER MRT STATION,12151
693,GRANGE 80,1.2993463,103.8282312,Mount Elizabeth Hospital,Wheelock Place,ORCHARD MRT STATION,13169
694,ORANGE REGENCY,1.3118537,103.8247988,Gleneagles Hospital,Tanglin Mall,STEVENS MRT STATION,40201
695,DUCHESS MANOR,1.3245004,103.8071034,Concord International Hospital,The Star Vista,TAN KAH KEE MRT STATION,41051
696,AVALON,1.3127859,103.8290898,Mount Elizabeth Hospital,Palais Renaissance,STEVENS MRT STATION,40191
697,RAINBOW MANSION,1.300304089,103.824894,Gleneagles Hospital,Tanglin Mall,ORCHARD MRT STATION,13189
698,THE ASANA,1.3221236,103.8109362,Concord International Hospital,Tanglin Mall,BOTANIC GARDENS MRT STATION,41031
699,MUTIARA VIEW,1.2954167,103.8284523,Mount Elizabeth Hospital,Great World City,TIONG BAHRU MRT STATION,13069
700,QUEEN ASTRID GARDENS,1.3183462,103.7893202,Concord International Hospital,The Star Vista,HOLLAND VILLAGE MRT STATION,11309
701,8 NAPIER,1.306782,103.8206222,Gleneagles Hospital,Tanglin Mall,ORCHARD MRT STATION,13019
702,SOMMERVILLE GRANDEUR,1.3159154,103.8067123,Concord International Hospital,The Star Vista,FARRER ROAD MRT STATION,11101
703,THE ORANGE GROVE,1.3137472,103.8265627,Gleneagles Hospital,Palais Renaissance,STEVENS MRT STATION,40209
704,CLIFTEN,1.317842401,103.8292685,Mount Elizabeth Hospital,Palais Renaissance,STEVENS MRT STATION,40071
705,GOODWOOD GRAND,1.3152824,103.8331036,Mount Elizabeth Hospital,Far East Plaza,NEWTON MRT STATION,40111
706,HOLT RESIDENCES,1.294187,103.826138,Mount Elizabeth Hospital,Great World City,TIONG BAHRU MRT STATION,13051
707,D'GROVE VILLAS,1.3091006,103.8276891,Gleneagles Hospital,Palais Renaissance,ORCHARD MRT STATION,9169
708,NASSIM JADE,1.3069815,103.8262105,Gleneagles Hospital,Tanglin Mall,ORCHARD MRT STATION,9159
709,UNIT 8,1.309704,103.805901,Gleneagles Hospital,The Star Vista,FARRER ROAD MRT STATION,11221
710,MANHATTAN MANSIONS,1.2998504,103.8284099,Mount Elizabeth Hospital,Wheelock Place,ORCHARD MRT STATION,13169
711,THE SIERRA,1.317821,103.780288,National University Hospital,The Star Vista,DOVER MRT STATION,12211
712,FONTANA HEIGHTS,1.3153964,103.7768478,National University Hospital,Grantral Mall,DOVER MRT STATION,12199
713,URBAN EDGE @ HOLLAND V,1.310912,103.7951937,National University Hospital,The Star Vista,HOLLAND VILLAGE MRT STATION,11419
714,SARKIES MANSIONS,1.313971249,103.8360152,Mount Elizabeth Hospital,Far East Plaza,NEWTON MRT STATION,40041
715,DUCHESS ROYALE,1.3242506,103.8062066,Concord International Hospital,The Star Vista,TAN KAH KEE MRT STATION,41051
716,CASA JERVOIS,1.2946766,103.8189966,Gleneagles Hospital,Tanglin Mall,REDHILL MRT STATION,10321
717,YGK GARDEN,1.3129882,103.7991991,Concord International Hospital,The Star Vista,HOLLAND VILLAGE MRT STATION,11231
718,ARDMORE II,1.309438,103.827952,Mount Elizabeth Hospital,Palais Renaissance,ORCHARD MRT STATION,9169
719,MARTINA MANSIONS,1.3176561,103.8333244,Thomson Medical Centre,United Square,NEWTON MRT STATION,40111
720,GLENTREES,1.3164845,103.7848761,National University Hospital,The Star Vista,DOVER MRT STATION,11291
721,THE SOLITAIRE,1.314917,103.8269981,Gleneagles Hospital,Palais Renaissance,STEVENS MRT STATION,40209
722,HALLMARK RESIDENCES,1.3160679,103.8308944,Mount Elizabeth Hospital,Far East Plaza,STEVENS MRT STATION,40111
723,STEVENS SUITES,1.3155525,103.8256536,Gleneagles Hospital,Palais Renaissance,STEVENS MRT STATION,40211
724,FAIRLODGE,1.3119957,103.8014792,Gleneagles Hospital,The Star Vista,HOLLAND VILLAGE MRT STATION,11239
725,THE HERMITAGE,1.319247233,103.8387578,Mount Elizabeth Novena Hospital,United Square,NOVENA MRT STATION,50061
726,CHARMING GARDEN,1.3166291,103.8035022,Concord International Hospital,The Star Vista,FARRER ROAD MRT STATION,11109
727,VERDURE,1.3093405,103.8068439,Gleneagles Hospital,Tanglin Mall,FARRER ROAD MRT STATION,11219
728,GISBORNE LIGHT,1.3162606,103.8303892,Mount Elizabeth Hospital,Far East Plaza,STEVENS MRT STATION,40111
729,LIEN TOWERS,1.3100028,103.8045498,Gleneagles Hospital,The Star Vista,FARRER ROAD MRT STATION,11221
730,LE GROVE,1.313403,103.825801,Gleneagles Hospital,Palais Renaissance,STEVENS MRT STATION,40201
731,BELLERIVE,1.317411139,103.8304175,Mount Elizabeth Hospital,Far East Plaza,STEVENS MRT STATION,40071
732,STEVENS LOFT,1.3176063,103.8265417,Gleneagles Hospital,Palais Renaissance,STEVENS MRT STATION,40219
733,LEEDON 2,1.313047,103.7968673,Concord International Hospital,The Star Vista,HOLLAND VILLAGE MRT STATION,11419
734,TANGLIN RESIDENCES,1.3062426,103.8238126,Gleneagles Hospital,Tanglin Mall,ORCHARD MRT STATION,9159
735,NASSIMVILLE,1.3077707,103.8250083,Gleneagles Hospital,Tanglin Mall,ORCHARD MRT STATION,9159
736,LEIGHWOODS,1.3150095,103.7773231,National University Hospital,Grantral Mall,DOVER MRT STATION,12199
737,VILLAGE TOWER,1.3152908,103.7775174,National University Hospital,Grantral Mall,DOVER MRT STATION,12199
738,STUDIO 3,1.292978,103.840062,Mount Elizabeth Hospital,Orchard Central,FORT CANNING MRT STATION,13211
739,ANGULLIA PARK RESIDENCES @ ORCHARD,1.3036264,103.8292454,Mount Elizabeth Hospital,Wheelock Place,ORCHARD MRT STATION,9111
740,BOULEVARD VUE,1.3030769,103.828996,Mount Elizabeth Hospital,Wheelock Place,ORCHARD MRT STATION,13191
741,THE BOULEVARD RESIDENCE,1.303788,103.8288313,Mount Elizabeth Hospital,Wheelock Place,ORCHARD MRT STATION,9111
742,HOLLAND MEWS,1.3094501,103.8062519,Gleneagles Hospital,The Star Vista,FARRER ROAD MRT STATION,11221
743,JERVOIS REGENCY,1.2945101,103.8221939,Gleneagles Hospital,Tiong Bahru Plaza,REDHILL MRT STATION,10269
744,KASTURINA LODGE,1.2963629,103.8297091,Mount Elizabeth Hospital,Great World City,ORCHARD MRT STATION,13063
745,TREASURE ON BALMORAL,1.3142183,103.8305074,Mount Elizabeth Hospital,Palais Renaissance,STEVENS MRT STATION,40191
746,BEAUFORT ON NASSIM,1.308563,103.824731,Gleneagles Hospital,Tanglin Mall,ORCHARD MRT STATION,9159
747,GALLOP COURT,1.3139579,103.8120266,Gleneagles Hospital,Tanglin Mall,FARRER ROAD MRT STATION,11119
748,DUET,1.311004,103.804402,Gleneagles Hospital,The Star Vista,FARRER ROAD MRT STATION,11229
749,THE OLIV,1.3148402,103.8315742,Mount Elizabeth Hospital,Far East Plaza,NEWTON MRT STATION,40199
750,LOFT @ STEVENS,1.3178483,103.8262792,Gleneagles Hospital,Palais Renaissance,STEVENS MRT STATION,40219
751,BEAVERTON COURT,1.3160592,103.7761235,National University Hospital,Grantral Mall,DOVER MRT STATION,12179
752,38 JERVOIS,1.2941424,103.8227582,Gleneagles Hospital,Tiong Bahru Plaza,REDHILL MRT STATION,10249
753,M5,1.2954955,103.8288797,Mount Elizabeth Hospital,Great World City,ORCHARD MRT STATION,13069
754,HOLLAND MANSION,1.311954,103.8012408,Gleneagles Hospital,The Star Vista,HOLLAND VILLAGE MRT STATION,11239
755,FIFTY-TWO STEVENS,1.3149995,103.8265087,Gleneagles Hospital,Palais Renaissance,STEVENS MRT STATION,40209
756,HOLLAND HILL LODGE,1.3098369,103.8028877,Gleneagles Hospital,The Star Vista,HOLLAND VILLAGE MRT STATION,11089
757,NASSIM LODGE,1.307303,103.825703,Gleneagles Hospital,Tanglin Mall,ORCHARD MRT STATION,9159
758,JADE MANSION,1.3134187,103.7972579,Concord International Hospital,The Star Vista,HOLLAND VILLAGE MRT STATION,11419
759,RICH MANSIONS,1.3175091,103.8336101,Thomson Medical Centre,United Square,NEWTON MRT STATION,40069
760,KUIE PONG LOFT,1.319215,103.825924,Gleneagles Hospital,Palais Renaissance,STEVENS MRT STATION,40221
761,REGENCY LODGE,1.2956979,103.8271013,Mount Elizabeth Hospital,Great World City,TIONG BAHRU MRT STATION,13062
762,CHIVERTON,1.3173715,103.8291593,Mount Elizabeth Hospital,Palais Renaissance,STEVENS MRT STATION,40071
763,RIVER VALLEY APARTMENTS,1.2953723,103.8289369,Mount Elizabeth Hospital,Great World City,ORCHARD MRT STATION,13069
764,THREE THREE ROBIN,1.3169477,103.8287897,Gleneagles Hospital,Palais Renaissance,STEVENS MRT STATION,40071
765,LUTHERAN TOWERS,1.3213488,103.8121084,Concord International Hospital,Tanglin Mall,BOTANIC GARDENS MRT STATION,41111
766,THE LADYHILL,1.31042,103.825058,Gleneagles Hospital,Tanglin Mall,ORCHARD MRT STATION,40201
767,THE COLONNADE,1.299680676,103.8278522,Mount Elizabeth Hospital,Wheelock Place,ORCHARD MRT STATION,13169
768,BALMORAL GATE,1.3170134,103.8343809,Thomson Medical Centre,United Square,NEWTON MRT STATION,40069
769,CLUNY COURT,1.3225818,103.8142314,Concord International Hospital,Tanglin Mall,BOTANIC GARDENS MRT STATION,41021
770,WING ON LIFE GARDEN,1.3176707,103.83166,Thomson Medical Centre,Far East Plaza,STEVENS MRT STATION,40111
771,SPRING RESIDENCES,1.3159969,103.8304075,Mount Elizabeth Hospital,Far East Plaza,STEVENS MRT STATION,40111
772,BALMORAL TOWER,1.3166153,103.8337896,Mount Elizabeth Hospital,Far East Plaza,NEWTON MRT STATION,40069
773,BOTANIKA,1.309653,103.808248,Gleneagles Hospital,Tanglin Mall,FARRER ROAD MRT STATION,11219
774,CORONATION GROVE,1.3218636,103.8053262,Concord International Hospital,The Star Vista,TAN KAH KEE MRT STATION,41051
775,TANGLIN HILL MEADOWS,1.3012403,103.8176503,Gleneagles Hospital,Tanglin Mall,REDHILL MRT STATION,13039
776,THE CLAYTON,1.317308,103.8295,Mount Elizabeth Hospital,Palais Renaissance,STEVENS MRT STATION,40071
777,SYLVAN LODGE,1.312719,103.7980777,Concord International Hospital,The Star Vista,HOLLAND VILLAGE MRT STATION,11419
778,THE BALMORAL SPRING,1.3154577,103.8342841,Mount Elizabeth Hospital,Far East Plaza,NEWTON MRT STATION,40051
779,FERRELL RESIDENCES,1.3178291,103.8324782,Thomson Medical Centre,Far East Plaza,STEVENS MRT STATION,40111
780,CASABELLA,1.323674,103.800037,Concord International Hospital,The Star Vista,TAN KAH KEE MRT STATION,41071
781,FIFTEEN ROBIN,1.3181944,103.8286365,Gleneagles Hospital,Palais Renaissance,STEVENS MRT STATION,40071
782,SERENE CENTRE,1.3225386,103.8136409,Concord International Hospital,Tanglin Mall,BOTANIC GARDENS MRT STATION,41031
783,TOMLINSON HEIGHTS,1.3030376,103.8268428,Gleneagles Hospital,Tanglin Mall,ORCHARD MRT STATION,9121
784,CHATEAU LE FAME,1.3167261,103.8293897,Mount Elizabeth Hospital,Palais Renaissance,STEVENS MRT STATION,40071
785,JAYA TOWER,1.3203249,103.8239926,Concord International Hospital,Palais Renaissance,STEVENS MRT STATION,40091
786,THE NASSIM,1.3063658,103.8225536,Gleneagles Hospital,Tanglin Mall,ORCHARD MRT STATION,9141
787,BALMORAL PLAZA,1.3165626,103.8354572,Mount Elizabeth Novena Hospital,United Square,NEWTON MRT STATION,40051
788,DE LENTE,1.3117434,103.8017414,Gleneagles Hospital,The Star Vista,HOLLAND VILLAGE MRT STATION,11239
789,KING'S ARCADE,1.3233285,103.8108037,Concord International Hospital,Tanglin Mall,TAN KAH KEE MRT STATION,41041
790,J C DRAYCOTT,1.309816,103.8308873,Mount Elizabeth Hospital,Palais Renaissance,ORCHARD MRT STATION,40191
791,THE TWINS,1.3147,103.8346,Mount Elizabeth Hospital,Far East Plaza,NEWTON MRT STATION,40051
792,THE BALMORAL,1.3152144,103.8281701,Gleneagles Hospital,Palais Renaissance,STEVENS MRT STATION,40209
793,BLISSFUL VIEW,1.3095816,103.8027537,Gleneagles Hospital,The Star Vista,HOLLAND VILLAGE MRT STATION,11089
794,ONE DUCHESS,1.3249472,103.8084208,Concord International Hospital,Tanglin Mall,TAN KAH KEE MRT STATION,41051
795,EWART PARK,1.3239258,103.783919,Concord International Hospital,Bukit Timah Plaza,KING ALBERT PARK MRT STATION,12029
796,THE LEGEND,1.318305,103.829401,Thomson Medical Centre,Palais Renaissance,STEVENS MRT STATION,40071
797,HOLLAND COURT,1.3133261,103.79807,Concord International Hospital,The Star Vista,HOLLAND VILLAGE MRT STATION,11419
798,BALMORAL 8,1.3145276,103.8322601,Mount Elizabeth Hospital,Far East Plaza,NEWTON MRT STATION,40199
799,SCULPTURA ARDMORE,1.3088315,103.830152,Mount Elizabeth Hospital,Palais Renaissance,ORCHARD MRT STATION,9169
800,PROXIMO,1.317416,103.828806,Gleneagles Hospital,Palais Renaissance,STEVENS MRT STATION,40071
801,RISING SUITES,1.3143432,103.8364916,Mount Elizabeth Hospital,Far East Plaza,NEWTON MRT STATION,40041
802,LEWIS LODGE,1.3191041,103.8224632,Concord International Hospital,Tanglin Mall,STEVENS MRT STATION,40091
803,SIXTH AVENUE CENTRE,1.3313942,103.7950469,Concord International Hospital,Bukit Timah Plaza,SIXTH AVENUE MRT STATION,42011
804,SHAMROCK PARK,1.324736364,103.7976665,Concord International Hospital,The Star Vista,SIXTH AVENUE MRT STATION,11349
805,CHATELET,1.320230231,103.8243891,Concord International Hospital,Palais Renaissance,STEVENS MRT STATION,40091
806,CRYSTAL COURT,1.294420555,103.8278273,Mount Elizabeth Hospital,Great World City,TIONG BAHRU MRT STATION,13062
807,HOLLANDSWOOD COURT,1.3098474,103.8035859,Gleneagles Hospital,The Star Vista,HOLLAND VILLAGE MRT STATION,11089
808,GARDEN APARTMENTS,1.312237,103.825128,Gleneagles Hospital,Palais Renaissance,STEVENS MRT STATION,40201
809,JERVOIS GROVE,1.2949136,103.8186674,Gleneagles Hospital,Tanglin Mall,REDHILL MRT STATION,10321
810,VILLAEA VISTA,1.3141792,103.7923014,National University Hospital,The Star Vista,HOLLAND VILLAGE MRT STATION,11279
811,SECOND AVENUE JUNCTION,1.329899,103.7994724,Concord International Hospital,Bukit Timah Plaza,SIXTH AVENUE MRT STATION,41089
812,DYNASTY GARDEN,1.323286,103.7921066,Concord International Hospital,The Star Vista,SIXTH AVENUE MRT STATION,11331
813,JERVOIS MEADOWS,1.2949272,103.8167066,Gleneagles Hospital,Tanglin Mall,REDHILL MRT STATION,10321
814,LE NOUVEL ARDMORE,1.3103556,103.8279228,Gleneagles Hospital,Palais Renaissance,ORCHARD MRT STATION,40201
815,HOLLAND TOWER,1.3076211,103.8028947,Gleneagles Hospital,The Star Vista,COMMONWEALTH MRT STATION,11081
816,THE LEGACY,1.321003,103.822606,Concord International Hospital,Palais Renaissance,STEVENS MRT STATION,40091
817,ONE TREE HILL MANSIONS,1.300804,103.824698,Gleneagles Hospital,Tanglin Mall,ORCHARD MRT STATION,13189
818,CORONATION SHOPPING PLAZA,1.3239058,103.8099918,Concord International Hospital,Tanglin Mall,TAN KAH KEE MRT STATION,41041
819,THE CAPRI,1.3183308,103.8260057,Gleneagles Hospital,Palais Renaissance,STEVENS MRT STATION,40221
820,WHITE HOUSE RESIDENCES,1.3177998,103.8252524,Gleneagles Hospital,Palais Renaissance,STEVENS MRT STATION,40219
821,CORONATION ARCADE,1.3233333,103.8105556,Concord International Hospital,Tanglin Mall,TAN KAH KEE MRT STATION,41041
822,FERNHILL RESIDENCES,1.3139274,103.8245465,Gleneagles Hospital,Palais Renaissance,STEVENS MRT STATION,40209
823,HONOLULU TOWER,1.3179217,103.8309746,Thomson Medical Centre,Far East Plaza,STEVENS MRT STATION,40111
824,JEWEL OF BALMORAL,1.3158542,103.8274973,Gleneagles Hospital,Palais Renaissance,STEVENS MRT STATION,40211
825,OEI TIONG HAM PARK RESIDENCES,1.3149936,103.7927377,Concord International Hospital,The Star Vista,HOLLAND VILLAGE MRT STATION,11279
826,DALVEY COURT,1.3210565,103.8220031,Concord International Hospital,Palais Renaissance,STEVENS MRT STATION,40091
827,CASA UNO,1.3151546,103.8258678,Gleneagles Hospital,Palais Renaissance,STEVENS MRT STATION,40211
828,21 ANDERSON,1.3126439,103.828307,Gleneagles Hospital,Palais Renaissance,STEVENS MRT STATION,40201
829,BALMORAL POINT,1.3163818,103.8332908,Mount Elizabeth Hospital,Far East Plaza,NEWTON MRT STATION,40111
830,HOLLAND SUITES,1.3118396,103.7995483,Concord International Hospital,The Star Vista,HOLLAND VILLAGE MRT STATION,11231
831,ROCHALIE RESIDENCES,1.302534,103.821798,Gleneagles Hospital,Tanglin Mall,ORCHARD MRT STATION,13049
832,GRANGE ROAD APARTMENTS,1.2997449,103.8248186,Gleneagles Hospital,Tanglin Mall,ORCHARD MRT STATION,13181
833,DYNASTY LODGE,1.323986,103.792046,Concord International Hospital,The Star Vista,SIXTH AVENUE MRT STATION,11339
834,1 NASSIM,1.306831,103.8265774,Gleneagles Hospital,Palais Renaissance,ORCHARD MRT STATION,9159
835,JERVOIS VIEW,1.2938974,103.8242145,Gleneagles Hospital,Great World City,TIONG BAHRU MRT STATION,13051
836,EDEN,1.3101939,103.831871,Mount Elizabeth Hospital,Far East Plaza,ORCHARD MRT STATION,40199
837,JUNIPER AT ARDMORE,1.309041,103.82988,Mount Elizabeth Hospital,Palais Renaissance,ORCHARD MRT STATION,9169
838,HMLET@PORTOFINO,1.3140687,103.8363001,Mount Elizabeth Hospital,Far East Plaza,NEWTON MRT STATION,40041
839,HANSVILLE,1.325184156,103.7937398,Concord International Hospital,The Star Vista,SIXTH AVENUE MRT STATION,11349
840,JERVOIS COURT,1.295013,103.817999,Gleneagles Hospital,Tanglin Mall,REDHILL MRT STATION,10321
841,THE VANTAGE,1.308694,103.828007,Mount Elizabeth Hospital,Palais Renaissance,ORCHARD MRT STATION,9169
842,HOLLAND VILLAGE,1.310912,103.7951937,National University Hospital,The Star Vista,HOLLAND VILLAGE MRT STATION,11419
843,ASTRIDVILLE,1.3211551,103.7944617,Concord International Hospital,The Star Vista,HOLLAND VILLAGE MRT STATION,11331
844,ONE ROBIN,1.3188955,103.8286449,Thomson Medical Centre,Palais Renaissance,STEVENS MRT STATION,40071
845,THE BELMONT,1.313214,103.798549,Concord International Hospital,The Star Vista,HOLLAND VILLAGE MRT STATION,11419
846,MANDALE HEIGHTS,1.3242973,103.8496906,Tan Tock Seng Hospital,Zhongshan Mall,NOVENA MRT STATION,50199
847,L'VIV,1.315576105,103.8406731,Mount Elizabeth Novena Hospital,United Square,NEWTON MRT STATION,40121
848,NOVENA REGENCY,1.32125,103.8416023,Mount Elizabeth Novena Hospital,Velocity@Novena Square,NOVENA MRT STATION,50031
849,AMARYLLIS VILLE,1.314928,103.8419266,KK Women's and Children's Hospital,United Square,NEWTON MRT STATION,40129
850,10 SHELFORD,1.3258989,103.8124981,Concord International Hospital,Tanglin Mall,BOTANIC GARDENS MRT STATION,41121
851,DUNEARN SUITES,1.3247179,103.8107191,Concord International Hospital,Tanglin Mall,TAN KAH KEE MRT STATION,41049
852,NEWTON GEMS,1.3178361,103.8418943,Mount Elizabeth Novena Hospital,United Square,NOVENA MRT STATION,50061
853,NOVENA LODGE,1.3237396,103.8412377,Thomson Medical Centre,Balestier Hill Shopping Centre,NOVENA MRT STATION,50041
854,THE SHELFORD,1.3254786,103.8112286,Concord International Hospital,Tanglin Mall,TAN KAH KEE MRT STATION,41049
855,TRILIGHT,1.314912,103.8400352,KK Women's and Children's Hospital,United Square,NEWTON MRT STATION,40121
856,LINCOLN SUITES,1.3170473,103.8427775,Tan Tock Seng Hospital,United Square,NOVENA MRT STATION,50069
857,LUCIDA,1.314763,103.844704,KK Women's and Children's Hospital,United Square,NOVENA MRT STATION,50029
858,BUCKLEY CLASSIQUE,1.3180928,103.8403975,Mount Elizabeth Novena Hospital,United Square,NOVENA MRT STATION,50061
859,1 MOULMEIN RISE,1.3191858,103.8471427,Tan Tock Seng Hospital,Velocity@Novena Square,NOVENA MRT STATION,50111
860,CITY EDGE,1.3195017,103.8465504,Tan Tock Seng Hospital,Velocity@Novena Square,NOVENA MRT STATION,50111
861,SKY@ELEVEN,1.3308025,103.8408624,Thomson Medical Centre,Balestier Hill Shopping Centre,TOA PAYOH MRT STATION,51029
862,ZEDGE,1.32245,103.848124,Tan Tock Seng Hospital,Zhongshan Mall,NOVENA MRT STATION,50121
863,RESIDENCES @ EVELYN,1.3161297,103.8395006,Mount Elizabeth Novena Hospital,United Square,NEWTON MRT STATION,40121
864,SHELFORD SUITES,1.326506,103.812645,Concord International Hospital,Tanglin Mall,BOTANIC GARDENS MRT STATION,41121
865,CHANCERY COURT,1.3173385,103.8361257,Mount Elizabeth Novena Hospital,United Square,NEWTON MRT STATION,40059
866,VIVA,1.315701,103.844264,Tan Tock Seng Hospital,United Square,NOVENA MRT STATION,50029
867,THOMSON VALE,1.3239857,103.84146,Thomson Medical Centre,Balestier Hill Shopping Centre,NOVENA MRT STATION,50041
868,NOVENA COURT,1.3226702,103.84201,Mount Elizabeth Novena Hospital,Balestier Hill Shopping Centre,NOVENA MRT STATION,50049
869,6 DERBYSHIRE,1.3158526,103.8460141,Tan Tock Seng Hospital,United Square,NOVENA MRT STATION,50079
870,PARK INFINIA AT WEE NAM,1.314478,103.8434204,KK Women's and Children's Hospital,United Square,NEWTON MRT STATION,50029
871,368 THOMSON,1.3272054,103.8419479,Thomson Medical Centre,Balestier Hill Shopping Centre,NOVENA MRT STATION,50051
872,NINETEEN SHELFORD ROAD,1.3274899,103.8111207,Concord International Hospital,Tanglin Mall,TAN KAH KEE MRT STATION,41049
873,ROCHELLE AT NEWTON,1.3075517,103.8403765,Mount Elizabeth Hospital,The Paragon,NEWTON MRT STATION,40021
874,BUCKLEY 18,1.3181262,103.8409692,Mount Elizabeth Novena Hospital,United Square,NOVENA MRT STATION,50061
875,POINT LOMA,1.329720678,103.8116586,Concord International Hospital,Tanglin Mall,TAN KAH KEE MRT STATION,41131
876,THE GLYNDEBOURNE,1.3222295,103.8234597,Concord International Hospital,Palais Renaissance,STEVENS MRT STATION,40099
877,GILSTEAD COURT,1.3183716,103.8396965,Mount Elizabeth Novena Hospital,United Square,NOVENA MRT STATION,50061
878,STRATA,1.3173528,103.8448678,Tan Tock Seng Hospital,United Square,NOVENA MRT STATION,50021
879,THE PARK VALE,1.3302336,103.8114929,Concord International Hospital,Tanglin Mall,TAN KAH KEE MRT STATION,41131
880,THE TREVOSE,1.3231092,103.8252602,Concord International Hospital,Palais Renaissance,STEVENS MRT STATION,40231
881,HILLCREST ARCADIA,1.3351636,103.8092222,Concord International Hospital,Thomson Plaza,TAN KAH KEE MRT STATION,41131
882,MONTEBLEU,1.3236565,103.8499814,Tan Tock Seng Hospital,Zhongshan Mall,NOVENA MRT STATION,50199
883,ADRIA,1.316424,103.846273,Tan Tock Seng Hospital,United Square,NOVENA MRT STATION,50079
884,WATTEN ESTATE CONDOMINIUM,1.328497,103.81108,Concord International Hospital,Tanglin Mall,TAN KAH KEE MRT STATION,41131
885,VILLA DES FLORES,1.3252852,103.8367217,Thomson Medical Centre,Balestier Hill Shopping Centre,NOVENA MRT STATION,51099
886,MORIMASA GARDENS,1.3162486,103.8385848,Mount Elizabeth Novena Hospital,United Square,NEWTON MRT STATION,40049
887,THE ARMADALE,1.318827,103.8402911,Mount Elizabeth Novena Hospital,United Square,NOVENA MRT STATION,50061
888,DUNEARN REGENCY,1.3244935,103.8109067,Concord International Hospital,Tanglin Mall,TAN KAH KEE MRT STATION,41049
889,HILLS APARTMENT,1.3210934,103.8337149,Thomson Medical Centre,Balestier Hill Shopping Centre,STEVENS MRT STATION,40119
890,MONARCHY APARTMENTS,1.3247304,103.8502678,Tan Tock Seng Hospital,Zhongshan Mall,NOVENA MRT STATION,50199
891,ONE AKYAB,1.3226018,103.8478268,Tan Tock Seng Hospital,Zhongshan Mall,NOVENA MRT STATION,50189
892,LION TOWERS,1.3165802,103.8452911,Tan Tock Seng Hospital,United Square,NOVENA MRT STATION,50029
893,NOVENA HILL,1.323768,103.8431428,Mount Elizabeth Novena Hospital,Balestier Hill Shopping Centre,NOVENA MRT STATION,50049
894,SOLEIL @ SINARAN,1.3191734,103.845458,Tan Tock Seng Hospital,Velocity@Novena Square,NOVENA MRT STATION,50119
895,THOMSON 800,1.3409329,103.8376898,Mount Alvernia Hospital,Thomson V,CALDECOTT MRT STATION,51069
896,26 NEWTON,1.3156897,103.8415977,Tan Tock Seng Hospital,United Square,NEWTON MRT STATION,50069
897,SHELFORD 23,1.3277857,103.8121621,Concord International Hospital,Tanglin Mall,TAN KAH KEE MRT STATION,41121
898,GILSTEAD TWO,1.3151175,103.8385855,Mount Elizabeth Novena Hospital,United Square,NEWTON MRT STATION,40049
899,DUNEARN 386,1.3241517,103.8119354,Concord International Hospital,Tanglin Mall,BOTANIC GARDENS MRT STATION,41031
900,PAVILION 11,1.3244091,103.848499,Tan Tock Seng Hospital,Zhongshan Mall,NOVENA MRT STATION,50189
901,SHELFORD GREEN,1.3247925,103.8123553,Concord International Hospital,Tanglin Mall,BOTANIC GARDENS MRT STATION,41121
